UID,Asset Name,Asset ID,Block,District,Panchayat,built_in_2017,Exists,water_visible,latitude,longitude,size,remarks
22,WATER CONSERVATION,5001037502,sonhaula,BHAGALPUR,silhan khajuria,1,1,1,25.10386815,87.2809957985246,123,
41,gram lagma me liladhar choudhary radhakrishanchoudhry ke niji jamin me pokhri nirmankrya,5001180704,tardih,DARBHANGA,lagma,1,1,1,26.17670288,86.2418833333333,2039,
42,Yogendra Mukhia ke niji bhum,5001035440,baheri,DARBHANGA,athar north,1,1,1,26.07680862,86.0799762448406,320,
43,Ranjendra sahni & Animesh kumar ke,5001035469,baheri,DARBHANGA,athar north,1,1,1,26.07561478,86.0794813984898,3055,
44,ग्राम शिवराम में अनिल झा के निजी जमीन में पोखर खुदाई कार्य |,5001391671,benipur,DARBHANGA,shivram,1,1,1,26.13143921,86.0592263299829,999,
56,Gram Bharwari Me Prabhakar Chaudhi Ke Niji Jamin Me Pokhra Nirman Kary,5003607197,baheri,DARBHANGA,chaewa bharwari,1,1,1,25.97030528,85.9503987175964,2979,
64,GRAM BHAGAWATI PUR ME MUKESH SINGH KE NIJI JAMIN ME POKHAR NIRMAN,5003602970,baheri,DARBHANGA,hathauri south,1,1,1,25.93683564,85.994985542769,505,
65,GRAM DURGI CHAK ME PRABHUWAN KUMAR YADAV KE NIJI KHET ME POKHAR KA NIRMAN KARY,5003648701,baheri,DARBHANGA,hawidih north,1,1,1,26.01655277,86.1132958970147,1606,
68,"Harinarayan Mahto,Ramchatur Mahto ka khet Pokhar ka nirman",5002643798,baheri,DARBHANGA,hawidih south,1,1,1,25.9677636,86.0920890849673,686,
70,MD Taslim Ke Niji jamin Me Pokhar Niraman Kary,5003649115,baheri,DARBHANGA,hawidih south,1,1,1,25.96810552,86.0868634267362,140,
75,Gram mansara me Maharaji pokhar ka urahikaran,5001223818,gaurabauram,DARBHANGA,mansara,1,1,1,25.90545564,86.3232340968061,1211,
85,GRAM GAURA ME KASHIRAM TOLA ME CHHATH STHAN WALA POKHRA KA SAFAI KARY,5000920070,kataiya,GOPALGANJ,gaura,1,1,1,26.59258885,84.1304880303009,1085,
132,Gram Manjha Kandhwaliya me Rajiv Rai ke Niji Jamin me Pokhra Nirman kary.,5000991668,phulwariya,GOPALGANJ,majhagosai,1,1,1,26.41092964,84.2518922470172,644,
149,ग्राम सबेया में सबेया पोखरा का सफाई एम् मिट्टी कटाई कार्य,5001181146,hathua,GOPALGANJ,kandhgopi,1,1,1,26.38769662,84.2970791679073,3251,
153,ग्राम सिगहा टोला तुलसिया में हलवाई बांध के किनारे पोखरी का खुदाई कार्य,5000990767,hathua,GOPALGANJ,singha,1,1,1,26.34118258,84.2726973404858,2551,
155,Gram Manjha Gosai me Mritunjay Singh ke Niji jamin me Pokhra Nirman kary,5001266034,phulwariya,GOPALGANJ,majhagosai,1,1,1,26.40600032,84.2396369723579,1379,
163,ग्राम इन्द्रवा शाकिर में जुल्फेकर अहमद के निजी भूमि में तलाब का निर्माण कार्य |,5001395694,thawe,GOPALGANJ,indarwa bedullah,1,1,1,26.46814208,84.3948142383153,2052,
173,jagritola vard no 2 me kanhiya choudhary ke niji jamin me pokara ka nirman,5001085049,gopalganj,GOPALGANJ,jagiri tola,1,1,1,26.49845638,84.4747142231805,660,
184,wc,5001066407,manjha,GOPALGANJ,safapur,1,1,1,26.356085,84.4764195414451,301,
185,wc,5001083342,manjha,GOPALGANJ,shekh parsa,1,1,1,26.39298987,84.5012728244234,3427,
188,सत्यम कुमार सिंह के निजी जमीन मे पोखरा निर्माण,5001019470,baikunthpur,GOPALGANJ,parsauni,1,1,1,26.33243942,84.7308185578343,2675,
193,DAROGA RAY S/O VISHUNDEV RAY KE NIJI JAMIN ME POKHRA,5001135518,baikunthpur,GOPALGANJ,chamanpura,1,1,1,26.27507666,84.697527787867,969.35,
196,वार्ड 10 में जगन्नाथ प्रसाद के निजी जमीन में पोखरा निर्माण,5001019474,baikunthpur,GOPALGANJ,parsauni,1,1,1,26.33507677,84.7446858432592,2001,
209,gutam kumar ke jamin me talab nirman,5001055112,islamnagar aliganj,JAMUI,mirjaganj,1,1,1,24.93657263,85.9631756633153,281,
247,khet pokhar,5003953507,jamui,JAMUI,karan,1,1,1,25.00336832,86.1744432919453,981,
263,ROHIT HANSDA KE JAMIN ME KHET,5000946744,barhat,JAMUI,bhahat,1,1,1,25.00966199,86.2764238379278,495,
266,MUNESHWAR PANDIT KE JAMIN ME KHET,5000946769,barhat,JAMUI,bhahat,1,1,1,25.01445113,86.2750092022804,652,
268,SHYAM KORA KE NIJI JAMIN ME KHET,5000946774,barhat,JAMUI,bhahat,1,1,1,25.02212133,86.2895937925239,376,
271,NEGRI POKHAR KI,5001000422,barhat,JAMUI,katauna,1,1,1,24.9504728,86.2635350708874,1833,
280,Taliyadih mearjun yadav ke khet me talab nirman,5001034274,laxmipur,JAMUI,dighi,1,1,0,24.95538913,86.4438152654656,776,
283,Kajhatari me khajur bandh nirman,5001305446,laxmipur,JAMUI,dighi,1,1,1,24.96275518,86.4923178426658,3401,
284,RAMANI TOLA ME TALAB NIRMAN,5000911941,laxmipur,JAMUI,goura,1,1,1,24.96550926,86.3530926708149,2478,
295,Arjun Yadav Ke Jamin Me Sichai Kup Nirman,5001269068,laxmipur,JAMUI,goura,1,1,1,24.9309334,86.3327081858603,658,
304,SANTOSH MANDAL KHET ME TALAB NIRMAN,5001206352,laxmipur,JAMUI,harla,1,1,1,24.97183684,86.3996823556789,544,
305,Sudhir Mandal Ke Khet Me Talab Nirman,5001283277,laxmipur,JAMUI,harla,1,1,1,24.96660771,86.4016075438277,763,
306,TALAAB NIRMAAN,5001175192,laxmipur,JAMUI,kakanchor,1,1,1,24.88356754,86.3786907266054,2248,
309,hridesh pandey ke jamin me talab nirman,5001206976,laxmipur,JAMUI,kala,1,1,1,24.95144579,86.3997720480504,2468,
310,sirsiya ahar ki khudai,5001295227,laxmipur,JAMUI,kala,1,1,1,24.96121154,86.4002412891387,2724,
311,devaki mandal ke jamin me khet pokhari nirman,5001295262,laxmipur,JAMUI,maraiya,1,1,1,24.95522,86.3850543493414,579,
320,mangrar domkatwa me talab nirman,5001314379,laxmipur,JAMUI,mohanpur,1,1,1,24.89123982,86.4091903255897,1509,
321,मुनेश्वर यादव के जमीन मे पोखरी निर्माण,5001368563,laxmipur,JAMUI,mohanpur,1,1,1,24.90043692,86.4459882743173,2540,
328,Bhurkuriya Me Talab Nirman,5001132189,laxmipur,JAMUI,pidron,1,1,,24.96623399,86.4337885257114,2301,
329,SHIVAN YADAV KE KHET ME KHET POKHRI NIRMAN,5001132190,laxmipur,JAMUI,pidron,1,1,1,24.9546782,86.4282386178564,446,
334,Talab Nirman,5001175686,laxmipur,JAMUI,pidron,1,1,1,24.94700405,86.4220304988578,1154,
342,Khet pokhar,5001685388,gidhor,JAMUI,guguldih,1,1,1,24.87744438,86.3649686796061,711,
343,8075,5001017199,jhajha,JAMUI,baijla,1,1,,24.82970919,86.45731687697,2413,
344,0550005007/WC/20226177,5001018717,jhajha,JAMUI,baijla,1,1,1,24.84384536,86.4283784101154,1512,
345,2086,5001002089,jhajha,JAMUI,barajor,1,1,,24.79959213,86.4016662636577,1609,
348,0550005008/WC/20227813,5001002192,jhajha,JAMUI,barajor,1,1,,24.80525033,86.3890798678339,972,
349,WC/20228521,5001051390,jhajha,JAMUI,barajor,1,1,,24.80319667,86.400505,1788,
356,talab ki khudai,5001713210,jhajha,JAMUI,borwa,1,1,,24.81569585,86.4532510347351,2386,
358,WC/20227508,5001166729,jhajha,JAMUI,chhappa,1,1,1,24.82904754,86.4082149929311,1707,
363,8531,5001016985,jhajha,JAMUI,dhamna,1,1,,24.87402425,86.3636318728163,1852,
368,WC/20225500,5001713219,jhajha,JAMUI,dhamna,1,1,,24.8713965,86.3808871878814,3015,
370,1263,5001017406,jhajha,JAMUI,hathiya,1,1,1,24.7715997,86.3586416613361,1364,
371,8623,5001395291,jhajha,JAMUI,hathiya,1,1,,24.78159912,86.3257320944085,3306,
373,0550005006/WC/20232296,5002449611,jhajha,JAMUI,hathiya,1,1,,24.77419821,86.3350121291359,4299,
376,0550005004/WC/20226575,5001118139,jhajha,JAMUI,kanan,1,1,,24.8272802,86.3591605685403,2391,
377,0550005004/WC/20228631,5001118143,jhajha,JAMUI,kanan,1,1,1,24.82467824,86.3652947366221,1485,
379,talab,5001756000,jhajha,JAMUI,kanoudi,1,1,1,24.69488502,86.5203509646001,2885,
387,WC/20231299,5001250786,jhajha,JAMUI,karma,1,1,1,24.89055353,86.4999151071447,4097,
398,20228712,5001003823,jhajha,JAMUI,pairgaha,1,1,,24.83511158,86.4782499970833,4051,
403,indradev yadav ka pokhari,5001273924,belhar,BANKA,basmatta panchayat 1,1,1,1,24.82999735,86.534323119268,590,
404,lalu yadav ka pokhari,5001273937,belhar,BANKA,basmatta panchayat 1,1,1,1,24.83352034,86.5350368147554,863,
405,kapildev yadav ka pokhar,5001273943,belhar,BANKA,basmatta panchayat 1,1,1,1,24.83164884,86.534768633755,924,
411,ग्राम पंचायत राज-कुंधुर के ग्राम गेेेेनाडीह में मंजू देवी के जमीन पर खेत पोखर निर्मण,5003086136,gidhor,JAMUI,kundhpur,1,1,1,24.89386284,86.3132092978038,711,
413,लालधर यादव के जमीन पर पोखर निर्माण,5001297077,gidhor,JAMUI,moura,1,1,1,24.81279833,86.3067873701983,751,
422,MITHILESH SAH,5000999203,khaira,JAMUI,bhimain,1,1,,24.80555963,86.2400594814129,1643,
423,Work Code 0550008021/WC/20229195 ~~~~ कोनि आहर की मरमतति,5001215175,khaira,JAMUI,bhimain,1,1,1,24.79663685,86.2189329912258,855,
425,उमाशंकर शर्मा के खेत में खेत पोखरी निर्माण,5001307143,khaira,JAMUI,bhimain,1,1,,24.81497824,86.2078826694635,894,
428,talab ki khudai,5001274740,khaira,JAMUI,bisanpur,1,1,,24.80639935,86.1671616866298,2483,
434,pokhar ki khdai,5001263664,khaira,JAMUI,goli,1,1,,24.76312902,86.1280393829252,1064,
437,ahar khudai,5001263733,khaira,JAMUI,goli,1,1,,24.76050601,86.1234173690067,2879,
438,ahar khudai,5001263740,khaira,JAMUI,goli,1,1,,24.76291343,86.1515280912411,1195,
439,ahar khudai,5001263749,khaira,JAMUI,goli,1,1,,24.78278746,86.1578058398741,1637,
440,ahar khudai,5001263808,khaira,JAMUI,goli,1,1,,24.75660502,86.1186265718414,5207,
444,0550008019/WC/20226167,5001807135,khaira,JAMUI,goli,1,1,,24.76627916,86.142718401182,2691,
445,0550008019/WC/20226164,5001807153,khaira,JAMUI,goli,1,1,,24.75838744,86.1610765931361,1886,
446,DROGA SINGH KE KHET MAI POKHAR NIRMAN KARY,5001199669,khaira,JAMUI,gopalpur,1,1,1,24.83995641,86.1898694558547,678,
450,Moti saw ke jamin me talab nirman,5001197332,khaira,JAMUI,harkhar,1,1,1,24.79100457,86.0542418772722,965,
454,jagdish paswan ke khet me pokhar nirman work,5001006740,khaira,JAMUI,jhundo,1,1,1,24.78649386,86.2389955711509,809,
462,korbadih tanti tola me talab nirman,5001003945,khaira,JAMUI,kageswar,1,1,,24.77624336,86.3185551233992,1481,
463,nadhi pahar ke pas talab,5001007770,khaira,JAMUI,kageswar,1,1,,24.77714703,86.3184644115271,2275,
469,Vikas Singh ke jamin par khetpokhar nirman,5001295035,khaira,JAMUI,kendih,1,1,1,24.87181534,86.2259573389857,5078,
474,ANIL KUMAR SINGH KE JAMIN MAI POKHAR NIRMAN KARY,5001390869,khaira,JAMUI,khandaich,1,1,,24.84968004,86.2292011100557,941,
479,TALAB NIRMAN,5000917733,khaira,JAMUI,raipura,1,1,1,24.81825457,86.2021746454048,970,
482,pokhar niman,5001016733,khaira,JAMUI,raipura,1,1,1,24.85233605,86.2119855623263,575,
487,0550001001/WC/20230891,5001916087,sono,JAMUI,sarebad,1,1,,24.75148028,86.1946187003655,831,
488,Gram savaijor me jamuniya jor me talab nirman,5002609157,sono,JAMUI,sarebad,1,1,,24.77077622,86.212956282634,2049,
493,Chauki karijhal me talab nirman,5001016555,sono,JAMUI,belamba,1,1,,24.73395422,86.3692900387525,3171,
498,Aphatab ansari ke jamin me khet pokhari,5001148200,sono,JAMUI,churhit,1,1,,24.75337652,86.2476853345774,688,
499,Mujphr ansari ke jamin me khet pokhari,5001173123,sono,JAMUI,churhit,1,1,,24.75375247,86.2466253610701,499,
506,POKHAR,5001165446,sono,JAMUI,gandar,1,1,0,24.65907778,86.33200833,1126.54,
508,POKHAR,5001165448,sono,JAMUI,gandar,1,1,1,24.66755684,86.33637977,552.46,
509,KHET POKHARI,5001295122,sono,JAMUI,gandar,1,1,0,24.64071774,86.33593091,602.56,
510,KHET POKHARI,5001295125,sono,JAMUI,gandar,1,1,0,24.64072951,86.33594266,602.56,Here both points refer to same farm pond but points are in perphery
517,Nageshwar yadav pita Shambhu yadav ke jamin me talab nirman,5001101709,sono,JAMUI,keshofarka,1,1,0,24.6791352,86.3033619,847.57,
521,Murti devi pati kapildev yadav ke jamin par talab nirman,5001391568,sono,JAMUI,keshofarka,1,1,0,24.69879971,86.29383907,757.77,
527,Ganda se paschim me pahari ke pas talab,5001163584,sono,JAMUI,lalilewar,1,1,0,24.70558634,86.20167075,1376.07,
530,Naresh yadav hariharpur ke khet me pokhari nirman,5001191306,sono,JAMUI,loha,1,1,0,24.72509,86.33021912,443.37,
532,Makbul ansari ke jamin me ke jamin me niji talab nirman,5001063074,sono,JAMUI,maheshwari,1,1,0,24.66237781,86.28671797,685.92,
536,pond,5001190584,sono,JAMUI,maheshwari,1,1,1,24.68389162,86.38138749,1415.75,
548,Kadwa me talab nirman,5000943983,sono,JAMUI,rajaun,1,1,0,24.66442698,86.26368008,1848.58,
551,basdev yadav ke jamin me pokhari nirman,5000999317,sono,JAMUI,rajaun,1,1,0,24.63344107,86.27360828,606.36,
554,NANI MADHAR ME TALAB,5001176732,sono,JAMUI,rajaun,1,1,0,24.63076485,86.26605554,1585.87,
555,Bagakol ke gamjor me talab,5001176739,sono,JAMUI,rajaun,1,1,0,24.64085833,86.24711667,2300.07,
556,pond,5001177792,sono,JAMUI,rajaun,1,1,0,24.63739722,86.21486111,1619.66,
557,pond,5001250968,sono,JAMUI,rajaun,1,1,0,24.65049005,86.24489906,1720.65,
559,pond,5001255286,sono,JAMUI,rajaun,1,1,0,24.65036462,86.24448701,490.73,
564,pond,5001190574,sono,JAMUI,sarebad,1,1,0,24.74512923,86.21693601,1159.24,
573,suman singh ke jamin me talab nirman,5001017148,sono,JAMUI,thamhan,1,1,0,24.67385518,86.22455815,715.7,
594,कर्णगढ में मनोज सिंह के जमीन पर खेत पोखरी का निर्माण,5001069783,chakai,JAMUI,chandarmandih,1,1,0,24.59900592,86.4736701,339.46,
610,ramanand ray ke jamin par khet pokhari nirman,5001055073,chakai,JAMUI,gajhi,1,1,1,24.4921749,86.3946123,615.11,
619,Babumani singh ke jamin par khet pokhari nirman,5001055390,chakai,JAMUI,kiyajori,1,1,0,24.51771785,86.45786389,810.96,
621,Ramu yadav ke jamin par khet pokhari nirman,5001055392,chakai,JAMUI,kiyajori,1,1,0,24.50738381,86.49592365,974.81,
622,Suresh pandit ke jamin par khet pokhari nirman,5001055394,chakai,JAMUI,kiyajori,1,1,0,24.52671041,86.46456095,569.54,
623,Mangal yadav ke jamin par khet pokhari nirman,5001055395,chakai,JAMUI,kiyajori,1,1,0,24.50904513,86.49599722,1260.67,
624,Pawan yadav ke jamin par khet pokhari nirman,5001055396,chakai,JAMUI,kiyajori,1,1,0,24.5073851,86.49592585,1260.67,Refer to same farm pond as above
628,Chintu yadav ke jamin par khet pokhari nirman,5001055403,chakai,JAMUI,kiyajori,1,1,0,24.5099953,86.49690789,940.17,
630,Rajesh ram ke jamin par khet pokhari nirman,5001055405,chakai,JAMUI,kiyajori,1,1,0,24.51001998,86.49690812,940.17,Refer to same farm pond as above
631,Sochit rana ke jamin par khet pokhari nirman,5001055406,chakai,JAMUI,kiyajori,1,1,0,24.51427982,86.47989715,871.44,
642,GRAM KARHARITANR MAI DINESH PASWAN KE JAMIN PAR KHET POKHRI KA NIRMAN,5001055905,chakai,JAMUI,madhopur,1,1,0,24.5729854,86.51793056,469.24,
653,personal pokhar,5000969066,chakai,JAMUI,phariatadih,1,1,0,24.48704183,86.43551625,608.26,
661,MANGRA HANSDA KE JAMIN PAR KHET POKHRI KA NIRMAN,5001053986,chakai,JAMUI,pojha,1,1,1,24.5523735,86.3318095,461,
666,कालेशवर यादव के जमीन पर खेत पोखरी का निर्माण,5001053993,chakai,JAMUI,pojha,1,1,0,24.56008792,86.37621464,1233.41,
668,भागवत चौधरी के जमीन पर खेत पोखरी का निर्माण,5001053996,chakai,JAMUI,pojha,1,1,0,24.5549149,86.36948733,567.42,
675,बढीवा आहर का जीर्णोद्वार,5001053958,chakai,JAMUI,ramchndardih,1,1,1,24.52941914,86.36900083,1219.18,
679,PATJORI CHHOTAKA JOR MAI TALAB NIRMAN,5001055736,chakai,JAMUI,ramchndardih,1,1,0,24.53503056,86.37551712,1425.3,
683,ग्राम ठाढी में तालाब का निर्माण,5001055873,chakai,JAMUI,thadhi,1,1,0,24.64987002,86.46273892,2223.66,
717,0524007020/WC/20227157,5001087008,azamnagar,KATIHAR,pindhal,1,1,0,25.59081156,87.83906667,1391.46,
741,pokhar khudai,5000997273,terhagachh,KISHANGANJ,baigana panchayat,1,1,1,26.26693611,87.71513333,1142.18,
745,0542001011/IF/20245661,5002636619,terhagachh,KISHANGANJ,dakpokhar panchayat,1,0,,26.29595032,87.72270489,,
747,Mitti Bhari,5000945002,terhagachh,KISHANGANJ,dhabaili panchayat,1,1,1,26.36278333,87.64605556,515.2,
757,Talabe,5000967284,terhagachh,KISHANGANJ,dhabaili panchayat,1,1,0,26.36036111,87.67070278,243.08,
766,मो मुस्लिम पिता खुर्दम अली के निजी जमीन पर,5001107980,terhagachh,KISHANGANJ,kalpir panchayat,1,1,1,26.36030278,87.72841944,592.59,
776,TALAB,5000967664,dighalbank,KISHANGANJ,ikra panchayat,1,1,1,26.32800278,87.91182778,514.07,
777,TALAB,5000967665,dighalbank,KISHANGANJ,ikra panchayat,1,1,1,26.31458056,87.92859444,1246.83,
778,TALAB,5000967666,dighalbank,KISHANGANJ,ikra panchayat,1,1,,26.31451164,87.92859723,,Same as above point
779,TALAB,5000967667,dighalbank,KISHANGANJ,ikra panchayat,1,1,1,26.31503333,87.92904722,1656.02,
792,hbebur rahman ke niji jamin pe talab,5000924943,thakurganj,KISHANGANJ,bholmara panchayat,1,1,1,26.27842222,87.96716667,984.74,
804,Kamal Singh,5000967653,thakurganj,KISHANGANJ,rasia panchayat,1,1,0,26.29856667,87.99146111,899.81,
822,इसमाइल का तालाब निर्माण,5001019394,pothia,KISHANGANJ,mirzapur panchayat 3,1,1,1,26.37468333,88.18101111,277.64,
829,बामन गाव पश्चिम दिघी दोसो तलाब का जीर्णोद्धार कार्य,5000984459,pothia,KISHANGANJ,tipijhari panchayat,1,1,0,26.32081667,88.22187778,692.94,
840,11/2017-18 अब्‍दुल अजीज पिता मो0 डाहलू के जमीन में तालाब निर्माण कार्य,5001443592,bahadurganj,KISHANGANJ,chikabari  panchayat,1,1,0,26.262975,87.93181389,485.98,
842,nirmaan,5000948958,bahadurganj,KISHANGANJ,desiatoli  panchayat,1,1,1,26.23213611,87.92874167,480.76,
848,niraman,5000931633,bahadurganj,KISHANGANJ,natuapara  panchayat,1,1,1,26.20909167,87.83255556,779.04,
849,niraman,5000931634,bahadurganj,KISHANGANJ,natuapara  panchayat,1,1,1,26.20499722,87.84626111,775.04,
852,MD BADRUDDIN PITA LATE RIYAZUDDIN KE NIJI JAMIN PAR,5000961743,kochadhaman,KISHANGANJ,bagalbari panchayat,1,0,,26.1399357,87.8810039,,
874,IKBAL KE NIJI JAMIN PAR,5000961627,kochadhaman,KISHANGANJ,majagawan panchayat,1,1,1,26.19979444,87.87164167,1353.82,
878,MANJARI BEGAM PATI LT. NAJIM ANWER GRAM SEHANGAON KE NIJI JAMIN,5000967268,kochadhaman,KISHANGANJ,sunderbari panchayat,1,1,1,26.15750833,87.73896389,1229.29,
887,sarkari talab khudhai karya,5000967307,kishanganj,KISHANGANJ,singhia kulamani panchayat,1,1,1,26.16795,88.02098056,1762.33,
908,sarkari pokhari,5001213757,ghelarh,MADHEPURA,bhatrandha-parmanpur,1,1,1,25.991475,86.63981389,406.71,
909,pokhar,5001258175,ghelarh,MADHEPURA,jhitkia,1,1,1,25.9523936,86.6577544,1066.69,
913,GP-SAKARPURA ME WARD 8 CHANCHAL KUMAR KE NIJI JAMIN ME POKHAR,5001328517,madhepura,MADHEPURA,sakarpura-betona,1,1,0,25.93559444,86.84990278,1435.01,
920,WC,5002397915,uda kishanganj,MADHEPURA,gopalpur,1,1,0,25.63660278,86.91741111,3092.74,
927,GP Itahari me Sunil Ray ke niji jamin me pokhar nirman karya.,5000948808,alamnagar,MADHEPURA,itahari,1,1,1,25.51894444,86.91435556,990.89,
936,Kari Yadav pokhara ka urahi and ghat nirman,5001020716,ladania,MADHUBANI,lachminiya,1,1,0,26.60167778,86.35666667,1786.41,
941,SHIV NARAYAN SAH KE NIJI JAMIN ME,5001457212,ghoghardiha,MADHUBANI,bramhapur bathnaha,1,1,1,26.3306,86.47843889,2229.83,
942,bhola mandal ke niji jamin me,5001457222,ghoghardiha,MADHUBANI,bramhapur bathnaha,1,1,1,26.3305,86.47906389,1815.79,
943,SHRIKANT MANDAL KE NIJI JAMIN ME,5001457232,ghoghardiha,MADHUBANI,bramhapur bathnaha,1,1,1,26.33016667,86.47843889,2081.75,
944,JAY KANT MANDAL KE NIJI JAMIN MEIN,5001457250,ghoghardiha,MADHUBANI,bramhapur bathnaha,1,1,1,26.33012778,86.47901944,1964.44,
963,MIRJACHAK ME TALAB KUDAI KARYA,5001068984,bariyarpur,MUNGER,bariyarpur(south),1,1,1,25.26658056,86.56726389,641.05,
972,PAKARI ASHLI WARF 14 ME SARKARI POKHAR URAHI KARY,5001149173,sahebganj,MUZAFFARPUR,1/7 bishunpur patti,1,1,1,26.23669722,84.92864444,2645.72,
983,Bajrang Chaudhary ke niji janin me pokhar khudai karya,5002573378,motipur,MUZAFFARPUR,2/28 pakri,1,1,1,26.22271667,85.07499722,254.27,
1003,Binod ray ke niji jamin me pokhar khudai kary,"5,00,12,92,351",paroo,MUZAFFARPUR,3/28 pandeh,1,1,1,26.08845576,84.99653822,234.23,many separated ponds
1007,Shatrudhan prasad singh ke niji jamin me pokhar nirman kary,"5,00,14,46,116",paroo,MUZAFFARPUR,3/3 baijalpur,1,1,1,26.08427372,84.98766497,514,arear increased
1009,KISHUNLAL RAY KE NIJI JAMIN ME TLAB NIRMAN KARY,"5,00,12,44,334",paroo,MUZAFFARPUR,3/33 saraiya,1,1,1,26.1673862,85.0479362,600,multiple scattered plots
1011,GRAM CHANDPURA AMRESH SINGH KE NIJI JAMIN ME TLAB NIRMAN KARY,"5,00,12,44,336",paroo,MUZAFFARPUR,3/33 saraiya,1,1,1,26.1593002,85.0339312,400,increasd area
1012,GRAM CHAINPURA ME SUDISHTH SHARMA KE NIJI JAMIN ME TLAB NIRMAN KARY,"5,00,12,44,337",paroo,MUZAFFARPUR,3/33 saraiya,1,1,1,26.1592156,85.0344181,400,
1015,JOGINDRA SHANI KE NIJI JAMIN ME,"5,00,12,69,449",paroo,MUZAFFARPUR,3/34 usti,1,1,1,26.11318699,84.96873031,5007.13,too large and flooded area
1018,KRISHNA MOHAN KUMAR KE NIJI JAMIN ME .,"5,00,12,69,456",paroo,MUZAFFARPUR,3/34 usti,1,1,1,26.11228733,84.97270518,500.17,
1020,NAVAL SINGH KE NIJI JAMIN ME,"5,00,12,69,458",paroo,MUZAFFARPUR,3/34 usti,1,1,1,26.11309453,84.96777809,417.23,flodded area
1025,RAKESH KUMAR KE NIJI JAMIN ME POKHAR NIRMAN KARY,"5,00,12,96,940",paroo,MUZAFFARPUR,3/4 bajitpur,1,1,1,26.13748,85.1048217,2013.12,many scattered nearby
1026,VIJAY SINGH KE NIJI JAMIN ME POKHAR NIRMAN KARY,"5,00,12,96,942",paroo,MUZAFFARPUR,3/4 bajitpur,1,1,1,26.13746,85.1042383,1065.32,increased area
1027,SANJAY KUMAR KE NIJI JAMIN ME POKHAR NIRMAN KARY.,"5,00,12,96,944",paroo,MUZAFFARPUR,3/4 bajitpur,1,1,1,26.1380909,85.1044718,541.25,
1028,~ SUJIT KUMAR KE NIJI JAMIN ME POKHAR NIRMAN KARY.,"5,00,12,96,946",paroo,MUZAFFARPUR,3/4 bajitpur,1,1,1,26.1380217,85.10435,88.23,
1031,LALTI DEVI KE NIJI JAMIN ME POKHAR NIRMAN KARY,"5,00,12,96,905",paroo,MUZAFFARPUR,3/5 bhagwanpur simra,1,1,1,26.0634092,85.1017726,2301.12,many scattered ponds
1032,BHARAT SINGH KE NIJI JAMIN ME POKHAR NIRMAN KARY,"5,00,12,96,909",paroo,MUZAFFARPUR,3/5 bhagwanpur simra,1,1,1,26.0627804,85.1024106,2703.14,
1033,gram Tilakpakri me rajiv paswan ke niji jamin,"5,00,08,82,855",saraiya,MUZAFFARPUR,4/18 madhaul,1,1,1,26.0272117,85.0290267,1055.29,small cluseters
1034,GRAM PATADHI ME KUNDAN KR KE NIJI JAMIN,"5,00,08,82,724",saraiya,MUZAFFARPUR,4/18 madhaul,1,1,1,26.0195356,85.0428064,2596.32,many scattered ponds
1037,ANUGRAH NARAYAN SINGH KE NIJI JAMIN PAR POKHAR NIRMAN KARYA,"5,00,24,46,811",saraiya,MUZAFFARPUR,4/4 bahilwararoopnath north,1,1,1,26.04541148,85.2355907,406.24,
1038,SHIVJI SAHNI S/O LAKHAN SAHNI KA NIJI JAMIN PAR POKHAR NIRMAN KARYA,"5,00,34,44,970",saraiya,MUZAFFARPUR,4/4 bahilwararoopnath north,1,1,1,26.04084782,85.23208911,3664.28,many scattered ponds
1040,RANA PRATAP SINGH KE JAMIN ME POKHAR,"5,00,09,88,162",saraiya,MUZAFFARPUR,4/8 berua,1,1,1,26.1606734,85.1401192,1113.64,2 separate ponds
1043,RATAN KUMAR KE NIJI,"5,00,12,69,497",saraiya,MUZAFFARPUR,4/8 berua,1,1,1,26.1603988,85.1400153,800.23,
1047,शिव शंकर सिंह के निजी जमीन में पोखर निर्माण कार्य |,"5,00,13,12,794",kurhani,MUZAFFARPUR,5/31 pakahin,1,1,1,26.1104791,85.2704169,585.61,very shallow
1048,Subhankarpur purana pokhar ka urahi kary,"5,00,34,94,414",marwan,MUZAFFARPUR,7/14 subhankarpur,1,1,1,26.1226101,85.3251032,4747.82,maybe reconstructed
1049,kundan singh ke niji jamin mai pokhar nirman kareya,"5,00,12,69,103",marwan,MUZAFFARPUR,7/3 bhatauna,1,1,1,26.0854367,85.2763383,2226.27,
1051,pramod kumar ke niji jamin me pokhara ka nirman karya,"5,00,12,93,993",minapur,MUZAFFARPUR,8/12 koili,1,1,1,26.28008194,85.37627284,612.2,
1052,SURAJ SAHNI KE NIJI JAMIN ME PKHAR NIRMAN,"5,00,25,08,670",minapur,MUZAFFARPUR,8/12 koili,1,1,1,26.28011556,85.37639688,372.12,
1053,0515008017/WC/20231599,"5,00,31,69,212",minapur,MUZAFFARPUR,8/17 manikpur,1,1,1,26.2413479,85.3543221,606.39,
1054,RAMA SHANKAR RAY KE NIJI JAMIN ME POKHAR NIRMAN,"5,00,12,95,475",minapur,MUZAFFARPUR,8/19 nandana,1,1,1,26.297755,85.36885,9089.36,very shallow
1057,tapeswar sahni ke niji jamin me pokhar nirman karya,"5,00,36,68,977",minapur,MUZAFFARPUR,8/26 tengrari,1,1,1,26.3036258,85.2708009,98.49,
1059,जुनैद आलम के जमीन पर पोखर निर्माण कार्य,"5,00,13,99,163",bochahan,MUZAFFARPUR,10/13 narkatiya,1,1,1,26.2278368,85.4789848,677.21,
1060,लाल तिवारी पिता-दीपनारायण तिवारी के खेत में पोखर निर्माण कार्य,"5,00,13,99,223",bochahan,MUZAFFARPUR,10/4 deogan,1,1,1,26.2012787,85.5497303,300.98,
1061,shed,"5,00,34,16,572",aurai,MUZAFFARPUR,11/2 amnaur,1,1,1,26.26696767,85.53859362,477.98,
1063,0515012020/IF/20239242,"5,00,37,05,950",katra,MUZAFFARPUR,12/20 sonpur,1,1,1,26.1846933,85.638892,591.47,
1067,0515012006/IF/20244521,"5,00,36,30,314",katra,MUZAFFARPUR,12/6 changel,1,1,1,26.2750098,85.6346732,133.08,created very late in 2020
1069,Karamveer Sing ke Niji Jamin me Khet Pokhar Nirman Karya,"5,00,25,88,709",gaighat,MUZAFFARPUR,13/8 jamalpur kodai,1,1,1,26.1714903,85.6629815,1980.79,
1104,Tulsi Mohanpur me kothiya pul se narsinghpur lachaka tak nahar urahi karya,"5,00,23,88,714",sakra,MUZAFFARPUR,15/26 sakra wajid,1,1,1,26.0068292,85.5596198,224.9,
1109,मटियरिया में मनबहाली का पोखरा,"5,00,09,69,227",bagaha-ii,PASHCHIM CHAMPARAN,mahuawa katharawa,1,1,1,27.2889432,83.9947595,436.1,
1110,ग्राम देवतहा में सुरेश खतईत का पोखरा,"5,00,09,69,228",bagaha-ii,PASHCHIM CHAMPARAN,mahuawa katharawa,1,1,1,27.3060366,83.9702068,781.82,
1113,sewrahi kutti par sarbjanik pokhar ka nirman kary,"5,00,14,47,119",ramnagar,PASHCHIM CHAMPARAN,gudguddi,1,1,1,27.24716334,84.27176212,910.79,
1115,wad 2 me ajay singh ke niji jamin me pokhra,"5,00,24,33,911",ramnagar,PASHCHIM CHAMPARAN,mathia,1,1,1,27.21687,84.34267,879.72,
1116,Pokhar(pond),"5,00,13,00,940",gaunaha,PASHCHIM CHAMPARAN,belsandi,1,1,1,27.2476056,84.4264068,3346,one was made earlier and then one was added in some months
1120,matiyariya ke gram banahwa matiyariya ward 01 me pokhara ka jharai evm safai ka karya,"5,00,10,64,288",gaunaha,PASHCHIM CHAMPARAN,matiarawa,1,1,1,27.3037567,84.393935,829.29,
1121,pokhara nirman,"5,00,09,95,315",mainatand,PASHCHIM CHAMPARAN,barwa,1,1,1,27.1808995,84.5927128,556.66,2 ponds were already existing there from before and were also retaining water
1122,samiulah के निजि जमिन मे पोखर निर्मबन्,"5,00,14,16,148",mainatand,PASHCHIM CHAMPARAN,mahuawa sangraua,1,1,1,27.0603813,84.5912971,347.63,
1124,ग्राम प० रा० भसुरारी के ग्राम भसुरारी में नन्दा तिवारी के निजी भूमि,"5,00,10,39,573",narkatiaganj,PASHCHIM CHAMPARAN,bhasurari,1,1,1,27.0947347,84.5071966,1403.71,
1126,ग्रा.प.रा.भसुरारी के ग्राम कतघरवा में सोनेलाल प्रसाद गोड के नीजी जमीन में पोखरा खुदाई कार्य,"5,00,14,41,080",narkatiaganj,PASHCHIM CHAMPARAN,bhasurari,1,1,1,27.08677149,84.48927072,1014.28,
1127,ग्रा.पं. रा. भसुरारी के ग्राम कटघरवा में सरकारी पोखरा का सफाई कार्य,"5,00,14,41,084",narkatiaganj,PASHCHIM CHAMPARAN,bhasurari,1,1,1,27.09082486,84.49603076,8986.72,
1128,ग्राम केहुनिया रोआरी के ग्राम सिसवा में शिव मंदिर में सामने पोखरा का जीर्णोद्धार कार्य,"5,00,14,41,095",narkatiaganj,PASHCHIM CHAMPARAN,kehunia roari,1,1,1,27.04858046,84.44515195,1457.57,
1129,शेरहवा में भंटाडीह गाव के पोखरा का सफाई कार्य,"5,00,10,39,367",narkatiaganj,PASHCHIM CHAMPARAN,serahwa,1,1,1,27.11509676,84.39059463,436.05,however have a flooded area near that
1132,ग्राम पिपरा में बिन्ध्याचल पासवान के निजी जमीन में तलाब खुदाई,"5,00,24,50,103",bagaha-i,PASHCHIM CHAMPARAN,hardi nadwa,1,1,1,27.0495161,84.2628728,2628.34,but close to a smal river nearby
1135,behra ke radheshyam thakur ke niji jamin ke khet pokhri nirman karg,"5,00,14,48,994",sikta,PASHCHIM CHAMPARAN,behara,1,1,1,26.9796292,84.6206999,2362.44,
1138,GPR BEHARA KE GRAM JHUMAKA ME JULAFIKARUL AJAM KE NIJJI JAMIN ME POKHRA KHUDAEE KARYA,"5,00,14,49,018",sikta,PASHCHIM CHAMPARAN,behara,1,1,1,26.9755934,84.6316696,2841.31,one significant pnd was nearby and functional
1141,GPR KATHIYA MATHIYA ME YOGENDRA MAHTO KE NIJI JAMIN ME POKHRA NIRMAN KARG,"5,00,10,36,758",sikta,PASHCHIM CHAMPARAN,kathia mathia,1,1,1,27.0115821,84.711643,2407.54,already a pond nearby and functional
1144,ILMUDIN ANSARI S/O SAHEBJAN ANSARI KE NIJI JAMIN ME KHET POKHRI NIRMAN KARG,"5,00,11,79,367",sikta,PASHCHIM CHAMPARAN,sargatia,1,1,1,26.9365916,84.6382369,379.59,already near a functional pond
1153,Mala Devi ke Niji Jamin me Talab Nirman,"5,00,11,87,122",bairia,PASHCHIM CHAMPARAN,fuliakhand,1,1,1,26.74968979,84.48074887,87892.18,many scattered pnds
1158,harendra panday ka talab,"5,00,09,86,427",bairia,PASHCHIM CHAMPARAN,patjirwa (north),1,1,1,26.81460111,84.40448332,638.95,
1159,jalaluddin ka talab,"5,00,10,22,325",bairia,PASHCHIM CHAMPARAN,patjirwa (north),1,1,1,26.80328874,84.39488555,2173.23,one was made earlier and then one was added in some months
1164,GP SANSARYA ME DRUP SAH KE NIZI BHUMI ME KHET POKHRI KA NIRMAN,"5,00,13,95,151",nautan,PASHCHIM CHAMPARAN,sansaraiya,1,1,1,26.77372612,84.49177652,1360.02,
1169,Anrullah ahamad ka niji land par khet pokhar ka nirman.,"5,00,13,95,140",nautan,PASHCHIM CHAMPARAN,sansaraiya,1,0,1,26.7679388,84.49486075,1921.68,
1171,अनिल कुमार मिश्र के खेत में पोखरा निर्माण कार्य,"5,00,13,95,115",nautan,PASHCHIM CHAMPARAN,shivarajpur,1,1,1,26.67260104,84.45229866,1160.41,
1175,pokhara,"5,00,14,51,264",adapur,PURBI CHAMPARAN,laxmipur pokhariya,1,1,1,26.90116167,84.88499667,6322.49,one significant pnd was nearby and functional
1179,Water Harvesting,"5,00,13,72,099",ghorasahan,PURBI CHAMPARAN,purnahiya,1,1,1,26.8063646,85.1519035,1016.11,
1180,0513013006/WC/20231443,"5,00,20,26,641",ghorasahan,PURBI CHAMPARAN,sripur,1,1,1,26.8002339,85.1790279,508.84,one significant pnd was nearby and functional
1185,Gram Bakhri Khajuri Me Rajeswar Ray Ke Niji Zamin Me Pokhar Nirman Kary,"5,00,10,31,241",dhaka,PURBI CHAMPARAN,bhagwanpur,1,1,1,26.71907688,85.18799632,1012.63,
1187,Gram Yadopur Bhakhari Me Umesh Yadav Ke Niji Zamin Me Pokhar Ka Nirman Kary,"5,00,10,31,245",dhaka,PURBI CHAMPARAN,bhagwanpur,1,1,1,26.70647731,85.19798416,3715.64,farm was reconstructed to make it bigger
1192,sanjay singh k nizi jamin me khet pokhar ka nirman work,"5,00,14,63,313",chiraiya,PURBI CHAMPARAN,mirpur,1,1,1,26.6770694,85.1005503,1173.53,
1199,SANJAY KUMAR SINGH KE NIJI JAMIN ME POKHRA KA NIRMAN KARYA,"5,00,12,93,039",harsidhi,PURBI CHAMPARAN,olaha mehata tola,1,1,1,26.57531833,84.73607,1360.8,one significant pnd was nearby and functional
1200,LALBAHADUR THAKUR KE NIJI JAMIN ME POKHRA KHUDAI KARYA,"5,00,12,93,040",harsidhi,PURBI CHAMPARAN,olaha mehata tola,1,1,1,26.57874667,84.74566167,1570.17,one significant pnd was nearby and functional
1229,farm pond,"5,00,10,12,032",areraj,PURBI CHAMPARAN,nawada,1,1,1,26.49018818,84.65471456,2599.78,"this farm pond is part of a biger water body , all being farm ponds."
1231,farm pond,"5,00,10,12,055",areraj,PURBI CHAMPARAN,nawada,1,1,1,26.49302333,84.642875,2620.15,present
1232,farm pond,"5,00,10,12,061",areraj,PURBI CHAMPARAN,nawada,1,1,1,26.48983833,84.655085,535.51,"this farm pond is part of a biger water body , all being farm ponds."
1234,farm pond,"5,00,10,12,066",areraj,PURBI CHAMPARAN,nawada,1,1,1,26.49787478,84.64612509,3439.77,present
1240,phokhra,"5,00,10,27,880",areraj,PURBI CHAMPARAN,sareya,1,1,1,26.498619,84.6032192,391.3,present
1248,Alock Ranjan singh urf Munna singh ke niji jamin,"5,00,11,05,600",sangrampur,PURBI CHAMPARAN,barwa,1,1,1,26.4530483,84.7572888,1798.79,present
1249,niji pokhra,"5,00,20,95,175",sangrampur,PURBI CHAMPARAN,barwa,1,1,1,26.4762258,84.755875,9261.37,present
1268,pokhra,"5,00,18,21,560",sangrampur,PURBI CHAMPARAN,dumariya,1,1,1,26.38734667,84.75539667,1621.41,present
1270,pokhra,"5,00,18,21,691",sangrampur,PURBI CHAMPARAN,dumariya,1,1,1,26.38766404,84.75554817,3614.87,present
1271,SEKHI CHAKIA WARD NO 13,"5,00,13,52,002",chakia (pipra),PURBI CHAMPARAN,chakia,1,1,1,26.39901832,85.04883049,4476.83,present
1273,NIJI,"5,00,09,93,133",kalyanpur,PURBI CHAMPARAN,patna,1,1,1,26.387655,84.8845846,620.29,present
1274,NIJI,"5,00,09,93,134",kalyanpur,PURBI CHAMPARAN,patna,1,1,1,26.3928817,84.885802,4080.54,present
1277,farm pond,"5,00,13,53,855",phenhara,PURBI CHAMPARAN,bara parsauni,1,1,1,26.52055794,85.21356071,778.48,present
1278,pokhra ki khudai,"5,00,09,58,073",phenhara,PURBI CHAMPARAN,mankarwa,1,1,1,26.5311909,85.1803401,7441.05,present
1279,RAM DARSHAN THAKUR KE NIJI JAMIN ME POKHRA KHUDAI KARYA,"5,00,08,85,963",phenhara,PURBI CHAMPARAN,rupauliya,1,1,1,26.5030389,85.1642784,366.53,present
1280,umashankar rai ke khet me pokara,"5,00,10,10,388",madhuban,PURBI CHAMPARAN,kabz nagar,1,1,1,26.46438237,85.18521372,336.14,present
1285,taksari shivnath kesari ke khet me pokhra nirman kar,"5,00,28,92,253",madhuban,PURBI CHAMPARAN,naurangiya madhopura,1,1,1,26.47085265,85.12754787,1830.91,present
1287,chunchun singh ke khet me pokhra nirman kary,"5,00,28,92,429",madhuban,PURBI CHAMPARAN,naurangiya madhopura,1,1,1,26.47101432,85.12796148,1967.84,present
1290,Tajpurbara Me Jagdev Ray Ke Ghar Ke Najdik Pokhar,"5,00,10,27,211",mehsi,PURBI CHAMPARAN,bhimalpur,1,1,1,26.3536355,85.1480222,1516.32,present
1291,Pokhari Nirman karya,"5,00,09,33,040",raxaul,PURBI CHAMPARAN,noneadia,1,1,1,26.947368,84.8604655,1880.89,present
1292,Pokhari Nirman karya,"5,00,09,33,046",raxaul,PURBI CHAMPARAN,noneadia,1,1,1,26.9696263,84.8613277,2129.83,present
1295,WARD 11 ME SIMANT KISHAN MADAN MOHAN SINGH KE NIJI JAMIN PAR POKHAR NIRMAN KARYA,"5,00,11,37,717",banmankhi,PURNIA,ladugarh,1,1,1,25.83314373,87.11342611,252.72,present
1296,0523006009/IF/20234553,"5,00,30,41,424",krityanand nagar,PURNIA,jagni,1,1,1,25.874755,87.30741833,1526.18,present
1297,AURAHI PANCHAYAT ME SANGITA DEVI W/O UPENDRA YADAV KE NIJI BHUMI PAR POKHAR NIRMAN WORK,"5,00,17,41,692",barhara,PURNIA,aurahi,1,1,1,25.82323336,87.13096849,2557.17,present
1300,JAYA DEVI W/O BIRENDRA YADAV KE NIJI BHUMI PAR POKHAR NIRMAN WORK,"5,00,14,59,854",barhara,PURNIA,gouripur,1,1,1,25.7742807,87.0639483,468.47,present
1302,Nathpur Panchayat Antargat Nageshwar Mandal Ke Jamin Me Khet Pokhar Nirman Karya,"5,00,11,80,206",barhara,PURNIA,nathpur 2,1,1,1,25.72557833,87.068395,448.16,present
1303,NIRMALA DEVI W/O FEKU KAMATI B.P.L DHARI KO NIJI BHUMI PAR POKHAR NIRMAN WORK,"5,00,13,55,626",barhara,PURNIA,sukhsena east,1,1,1,25.782509,87.1255359,8095.06,present
1315,RAMDIRI ME RAVINDRA KUMAR SHARMA KE NIJI JAMIN ME,"5,00,10,89,119",bhawanipur,PURNIA,suraiti,1,1,1,25.5668283,87.0629573,937.95,present
1319,IF,"5,00,19,61,921",rupouli,PURNIA,bhikhna,1,1,1,25.5627379,87.0996641,1128.53,present
1323,Manoj Mandal pita Jagdish Mandal ke nijee jameen me pokhar nirman,"5,00,11,26,807",dhamdaha,PURNIA,bishanpur 2,1,1,1,25.68654333,87.11777333,907.29,present
1325,BINDESHWARI RAM PITA BONU RAM KE NIJEE JAMEEN ME POKHAR NIRMAN CARY,"5,00,11,26,812",dhamdaha,PURNIA,bishanpur 2,1,1,1,25.7056404,87.1403883,581.66,present
1329,NANDESHWAR JHA S/O LT. ANANT JHA K NIJI JAMIN ME POKHAR NIRMAN KARYA,"5,00,13,97,164",dhamdaha,PURNIA,chikni dumariya,1,1,1,25.7929261,87.2917352,942.17,present
1331,Abhiram mahto ke jameen me pokhar nirman cary,"5,00,10,80,350",dhamdaha,PURNIA,etahari,1,1,1,25.6382625,87.2284612,942.17,present
1332,Vishnu Mahto ke nijee jameen me Pokhar nirman cary,"5,00,14,49,513",dhamdaha,PURNIA,etahari,1,1,1,25.6417097,87.2268814,574.4,present
1336,0523009012/IF/20237240,"5,00,14,48,461",dhamdaha,PURNIA,kishanpur balwa,1,1,1,25.672534,87.13048938,1473.1,present
1342,MOHAN MUNI BPL DHARI K NIJI JAMIN ME POKHAR NIRMAN KARYA,"5,00,13,97,703",dhamdaha,PURNIA,parasmani,1,1,1,25.8004441,87.2914894,2389.24,present
1348,Vijay Kumar Yadav k Niji Bhumi Ma Pokhar Nirman Work,"5,00,11,35,287",krityanand nagar,PURNIA,kohbara,1,1,1,25.9515302,87.3262554,656.04,present
1349,Santosh Kumar Yadav K Niji Bhumi Ma Pokhar Nirman Work,"5,00,11,35,289",krityanand nagar,PURNIA,kohbara,1,1,1,25.95259207,87.32584265,526.09,present
1350,Ward No K Sita Devi W/o Nawal Yadav K Niji Bhumi Ma Khet Pokhri Nirman Work,"5,00,11,35,295",krityanand nagar,PURNIA,kohbara,1,1,1,25.94671087,87.32863947,2933.1,present
1351,MD SAIJUDDIN S/O-ABDUL ZALEEL KE NIJI JAMIN ME KHE-POKHARI NIRMAN KARYA,"5,00,11,68,727",krityanand nagar,PURNIA,majra,1,1,1,25.6916233,87.3665767,3236.62,present
1352,BPL HOLDER MATINUDDIN KE NIJI JAMIN PR KHET POKHARI WORK,"5,00,11,68,743",krityanand nagar,PURNIA,majra,1,1,1,25.6893074,87.3842697,2086.81,present
1354,Sudharshan Kumar Mishra S/O-Sri Girijanand Mishra ke niji jamin pr Makhana Nirman t Work,"5,00,13,50,085",krityanand nagar,PURNIA,majra,1,1,1,25.70882928,87.36226519,5843.7,present
1355,Ward No02 K Supal Hashda K Niji Bhumi Ma,"5,00,10,17,202",krityanand nagar,PURNIA,porora,1,1,1,25.8572933,87.3864983,761.87,present
1356,BPL Holder Vijay Paswan S/O-Sri Mahavir Paswan ke Niji Jamin pr Makhana Khet NIrman Karya,"5,00,13,59,882",krityanand nagar,PURNIA,rahuwa,1,1,1,25.7328426,87.3874109,2431.32,present
1372,सुबोध शर्मा के निजी जमींन पर पोखर निर्माण कार्य,"5,00,25,23,636",srinagar,PURNIA,jhunni kala,1,1,1,25.8505874,87.4439441,193.06,present
1374,Hasim Ke Jamin Me Pokhar Nirman,"5,00,10,14,302",amour,PURNIA,amgachi,1,1,1,25.9251812,87.651878,257.76,present
1376,rasid ke niji jamin par pokhar nirman,"5,00,10,27,236",amour,PURNIA,bara idgahpanch,1,1,1,25.9185126,87.6346168,739.34,present
1380,Belka Bihar sarak jagdal Sima me Pokhar nirman,"5,00,10,67,410",amour,PURNIA,dalmalpur,1,1,1,26.05500396,87.66519513,1410.98,present
1382,Md Soyeb ke niji jamin me Pokhar nirman,"5,00,12,65,736",amour,PURNIA,machhatta,1,1,1,25.96265077,87.69819646,319.54,present
1383,Israil ke niji jamin me Pokhar nirman,"5,00,12,65,740",amour,PURNIA,machhatta,1,1,1,25.9601009,87.69509212,384.5,present
1387,AYUB SON OF GAFFUR KE JAMIN ME TALAB NIRMAN KARYA,"5,00,13,74,970",baisa,PURNIA,khapra 2,1,1,1,25.9903053,87.77268693,409.63,present
1391,WARD 11 ME ASAD JANAN KE JAMIN PER POKHAR NIRMAN WORK,"5,00,11,20,676",baisa,PURNIA,sisabari,1,1,1,26.07333483,87.74191811,587.41,present
1399,मो० इस्माईल के निजी जमीन पर,"5,00,09,61,344",baisi,PURNIA,sripur mallah toli,1,1,1,25.8945152,87.8100985,359.23,present
1400,"ADHKELI ME MD MOJIB S/O- SHE. INSAR ,VILL- AMNA KE JAMIN PAR POKHAR NIRMAN KARY","5,00,09,58,793",dagraua,PURNIA,adkeli,1,1,1,25.75431229,87.66208028,216.94,present
1412,Md jamil ke jamin me pokhar nirman kary,"5,00,10,40,010",dagraua,PURNIA,thathol,1,1,1,25.79689191,87.70740839,218.02,present
1414,POKHAR NIRMAN,"5,00,11,89,156",mahishi,SAHARSA,sirwar birwar,1,1,1,25.80144595,86.45681675,550.54,present
1416,FARM POND,"5,00,09,84,565",chhaurahi,BEGUSARAI,sahuri,1,1,1,25.74331694,86.1341961,345.87,present
1417,FARM POND,"5,00,09,84,566",chhaurahi,BEGUSARAI,sahuri,1,1,1,25.74096641,86.13358946,193.63,present
1418,khet pokhari,"5,00,08,90,552",barauni,BEGUSARAI,malhipur (north),1,1,1,25.1559176,85.7070133,291.89,present
1420,wc20232327,"5,00,09,47,697",narpatganj,ARARIA,khabdah panchayat,1,1,1,26.2797356,87.1987723,347.81,present
1424,WC/20225781,"5,00,09,40,797",narpatganj,ARARIA,madhura (w) panchayat,1,1,1,26.33922815,87.08545896,246.62,present
1425,WC/20225784,"5,00,09,40,798",narpatganj,ARARIA,madhura (w) panchayat,1,1,1,26.33855554,87.0857721,189.93,present
1427,Md Rustam Awam Md Afroj Ke Niji Jamin Me Pokhar Nirman Kary,"5,00,11,01,650",narpatganj,ARARIA,pithoura panchayat,1,1,1,26.2609908,87.0896681,130.54,present
1431,khet pokhri,"5,00,10,42,262",bhargama,ARARIA,birnagar (w) panchayat,1,1,1,25.9660162,87.11245834,161.7,present
1432,मो इक़बाल के जमीन में खेत पोखरी निर्माण कार्य,"5,00,10,42,263",bhargama,ARARIA,birnagar (w) panchayat,1,1,1,25.96589138,87.113391,1187.63,present
1433,बाशो यादव के जमीन में तालाब निर्माण कार्य,"5,00,10,41,340",bhargama,ARARIA,jainagar panchayat,1,1,1,26.16450046,87.14796834,227.16,present
1434,बेचन चौधरी के जमीन में तलब निर्माण कार्य,"5,00,10,41,614",bhargama,ARARIA,jainagar panchayat,1,1,1,26.16041198,87.13853739,496.35,present
1442,iswanath Singh Ke Khet Mei Pokhar Nirman Work,"5,00,18,05,882",raniganj,ARARIA,basaiti panchayat,1,1,1,26.048724,87.3192279,774.73,present
1444,खालिद के निजी जमीन में पोखर निर्माण कार्य,"5,00,11,18,357",raniganj,ARARIA,dhobaniya panchayat,1,1,1,26.0158093,87.39817494,656.79,present
1450,"2,02,24,999","5,00,18,33,432",araria,ARARIA,bansbari panchayat,1,1,1,26.19013122,87.4450833,731.15,present
1454,w.no-07 me nur hasan pita rakib ke niji jamin,"5,00,12,15,342",araria,ARARIA,bochi panchayat,1,1,1,26.20537167,87.49601167,257.43,present
1460,WARD NO 13 ME LAL MOHAMMAD KE NIJI JAMIN PAR TALAB NIRMAN KARYE,"5,00,13,93,695",araria,ARARIA,kamaldaha panchayat,1,1,1,26.08054824,87.44832201,4958.17,present
1462,ward 4 mai sawan mandal pita late devanand mandal ke jamin par pokhar nirman,"5,00,11,88,681",araria,ARARIA,kismat khawaspur panchayat,1,1,1,26.27390166,87.47161761,601.02,present
1474,Ward 11 Prinka Devi Pati Aadarsh Gupta,"5,00,10,23,751",kursakanta,ARARIA,kursakanta panchayat,1,1,1,26.36691795,87.44843117,1471.2,present
1476,कुर्साकांटा प०अ० वार्ड 04 में प्रतिमा देवी पति उत्तम कुमार राम के निजी जमीन में तालाब निर्माण कार्य,"5,00,13,94,514",kursakanta,ARARIA,kursakanta panchayat,1,1,1,26.37032054,87.44746653,234.07,
1478,Madhubani ward 09 Mangalchand Singh pita bulaki singh,"5,00,09,39,678",kursakanta,ARARIA,lailokhar panchayat,1,1,1,26.40905295,87.38319487,512.42,present
1483,लक्ष्मीपुर प०अ० वार्ड 06 हीरामनी देवी पति अनिल यादव के निजी जमीन में तालाब निर्माण कार्य,"5,00,13,93,510",kursakanta,ARARIA,laxmipur panchayat,1,1,0,26.30396078,87.41046567,175.4,water not present after 2017
1488,Pahusi Ward 4 Gurudev Singh pita Nand kishor singh,"5,00,09,35,020",kursakanta,ARARIA,pahunsi panchayat,1,1,0,26.385935,87.4085133,2298.76,farm pond built but no water present
1493,Ward 06 Shailendra kumar jha,"5,00,10,48,495",kursakanta,ARARIA,rahatmina panchayat,1,1,1,26.28834077,87.41099014,166.15,"farm pond built in 2017 at new lon/lat but was not present the very next years , farm pond was present at old lat/long although in after 2017."
1494,Ward 12 Shankarkumar Verma,"5,00,10,23,735",kursakanta,ARARIA,shankarpur panchayat,1,1,1,26.34023924,87.4205214,748.09,farm pond built in 2017
1495,Siktiya Ward 10 jiyaual Haqe pita Numan Ali,"5,00,09,07,098",kursakanta,ARARIA,siktiya panchayat,1,1,0,26.35327513,87.3757358,365.69,farm pond built but no water present
1496,Chikani Ward 11 Paremlata Devi,"5,00,09,85,059",kursakanta,ARARIA,siktiya panchayat,1,1,1,26.34321024,87.38014502,1580.4,farm pond bulit in 2017
1500,कोवाकोह प0 अंतर्गत वार्ड नो 08 में प्रकाश ठाकुर के निजी जमीन पोखर निर्माण कार्य,5001478428,sikty,ARARIA,kauakoh panchayat,1,1,1,26.32731355,87.47364688,1067.84,
1512,01 DIGHLI,5000985167,palasi,ARARIA,balua kaliyaganj panchayat,1,1,1,26.32325971,87.60875,2171.37,
1524,Ward No 2 Gulam Rasul Bax,5000940827,palasi,ARARIA,chahatpur panchayat,1,1,1,26.24945699,87.57275495,597.64,
1525,Maful Vill Chahatpur,5000951342,palasi,ARARIA,chahatpur panchayat,1,1,1,26.22533611,87.57369444,75.41,
1528,1 CHAHATPUR,5000984455,palasi,ARARIA,chahatpur panchayat,1,1,1,26.22571799,87.57343187,3695.8,
1530,WARD 11 ME ISRAFIL S/O SAHABUDDIN KE NIJI JAMIN PAR POKHAR NIRMAN KARY,5001806384,palasi,ARARIA,chahatpur panchayat,1,1,1,26.22308408,87.55269133,955.67,
1531,01 CHOURI,5001289609,palasi,ARARIA,chouri panchayat,1,1,1,26.30004563,87.63666685,906.46,
1534,01 DIGHLI,5001023400,palasi,ARARIA,dighli panchayat,1,1,1,26.29448626,87.60630493,200.33,pond already existed and divided into 2
1535,01 MAJLISPUR,5002437816,palasi,ARARIA,majlispur panchayat,1,1,1,26.22025167,87.625935,775.55,
1537,"ward no 13 ME BPL DHARI ISHAK,MUSTAK,AFJAL S/O SHOBRAT ALI KE NIJI JAMIN PAR TALAB NIRMAN KARY.",5001806452,palasi,ARARIA,suksaina panchayat,1,1,1,26.18401319,87.60718513,755.96,
1538,Ward No 13 Me Mohsin S/O Ulfat Ke Niji Jamin Per Talab Nirman Karya,5001806746,palasi,ARARIA,suksaina panchayat,1,1,1,26.18334562,87.60761463,840.7,
1539,WARD N 03 ME LAGHU SIMANT SHAMIM AKHTAR KE NIJI JAMIN,5000949851,jokihat,ARARIA,bagdahra panchayat,1,1,1,26.1380251,87.5727389,286.76,
1541,ward n 12 me laghu simant kisan masirrhaman ke niji jamin mE,5001391287,jokihat,ARARIA,bagdahra panchayat,1,1,1,26.13893712,87.56049814,146.25,
1542,ककोराह अफसर के निजी जमीन में पोखर निर्माण कार्य,5001173507,jokihat,ARARIA,bagnagar panchayat,1,1,1,26.00476041,87.53330352,1079.45,
1544,वार्ड 05 में इकबाल S/O अबुल के निजी जमीन में पोखर,5001038308,jokihat,ARARIA,bhagwanpur panchayat,1,1,1,26.13487394,87.53720969,747.49,
1546,वार्ड 06 में वसीक S/O यासीन के निजी जमीन पर,5001038318,jokihat,ARARIA,bhagwanpur panchayat,1,1,1,26.13584542,87.54435701,569.4,
1547,वार्ड 07 में अकलीम S/O बोकाय के नीजी जमीनी पर,5001038333,jokihat,ARARIA,bhagwanpur panchayat,1,1,1,26.13553808,87.54427231,521.28,
1548,वार्ड 07 में ज़ब्बार S/O मसीउद्दीन के निजी जमीन पर,5001038340,jokihat,ARARIA,bhagwanpur panchayat,1,1,1,26.12003376,87.53105805,1031.74,
1550,ward n 1 me zahir pita sirajul ke niji jamin me pokhar nirman kary,5001720536,jokihat,ARARIA,chakai panchayat,1,1,1,26.08264677,87.6292678,445.78,
1554,WARD NO 3 ME AFROJ S/O JAMSHED ALAM KE NIJI JAMIN PAR POKHAR NIRMAN KARYA,5001163502,jokihat,ARARIA,kakan panchayat,1,1,1,26.1612364,87.5656207,869.77,
1557,सउद/फैजान के निजी जमीन में पोखर निर्माण,5001163507,jokihat,ARARIA,kakan panchayat,1,1,1,26.1583986,87.5516489,,4 ponds
1558,मंजर के निजी जमीन में पोखर निर्माण,5001163508,jokihat,ARARIA,kakan panchayat,1,1,1,26.1583787,87.5516163,,4 ponds
1559,सीमांत किसान अलीम के निजी जमीन पर पोखर निर्माण,5001163510,jokihat,ARARIA,kakan panchayat,1,1,1,26.158561,87.5516644,,4 ponds
1564,वार्ड 10 में मोजीब S/O मोजिबुरहमान के निजी के जमीन पर पोखर निर्माण कार्य,5001157332,jokihat,ARARIA,matiyari panchayat,1,,1,26.1295513,87.6032653,,
1565,वार्ड 05 में आजम पिता तसलीम के निजी जमीन में,5000908427,jokihat,ARARIA,pathrabari panchayat,1,,1,26.1589613,87.6556768,1430.3,
1572,वार्ड 02 में लघु सीमांत किसान शमसाद आलम पिता मो० मोसीम के पोखर निर्माण,5001163523,jokihat,ARARIA,sisouna panchayat,1,1,1,26.1394616,87.6055244,380.25,
1580,0545003013/IF/20237835,5002395353,shambhuganj,BANKA,chutiya belari panchayat,1,1,1,25.0434823,86.7484056,1539.49,
1588,मुन्ना चौधरी का पोखर खुदाई,5001352298,dhuraiya,BANKA,lougay panchayat,1,1,1,24.92762833,87.07823667,,
1590,sichai nala,5001113074,barahat,BANKA,gordhawar panchayat,1,1,1,24.93866692,87.00738157,,
1596,Sanjay yadav ke jamin per khet pokheri ka nirman,5001014331,banka,BANKA,dara panchayat,1,1,1,24.8788876,86.8412371,872.91,
1599,Luten Yadav ka Khetpokheri nirman,5001014336,banka,BANKA,dara panchayat,1,1,0,24.87907222,86.83696111,636.86,
1600,Rameshwar ray ka Khetpokheri,5001014337,banka,BANKA,dara panchayat,1,1,0,24.881094,86.8413525,523.2,seem only boundary created no water in farm ponds
1601,Galgala me pokhar ka nirman,5001864403,banka,BANKA,dara panchayat,1,1,1,24.88167778,86.83562778,2790.09,already present and no repair work clearly visible
1603,Mahendra yadav ka khet pokhar,5000969493,banka,BANKA,dkateli panchayat,1,1,1,24.82758333,86.83800667,1010.67,
1604,Chandradev das ka khet pokhar,5000969494,banka,BANKA,dkateli panchayat,1,1,1,24.82828833,86.8356,1083.88,
1605,MURARI YADAV KE JAMIN PAR POKHAR KA NIRMAN,5001450542,banka,BANKA,dkateli panchayat,1,1,1,24.82866,86.85187333,627.07,
1606,Darweshwar Mahato ka Khet Pokheri,5000986661,banka,BANKA,lakarikola panchayat,1,1,1,24.82899416,86.92642895,1000.42,
1607,AJAY YADAV KE JAMIN PAR POKHAR KA NIRMAN,5001450743,banka,BANKA,samukhiya panchayat,1,1,1,24.936705,86.85217833,3220.04,seem extension of farm ponds
1608,khet pokhari ka nirman,5002062953,banka,BANKA,samukhiya panchayat,1,1,1,24.93022222,86.86235556,937.75,
1609,khet pokhari ka nirman,5002062956,banka,BANKA,samukhiya panchayat,1,1,1,24.9302222222222,86.8623555555556,1047.83,
1610,khet pokhari ka nirman,5002062960,banka,BANKA,samukhiya panchayat,1,1,1,24.93675,86.8519027777778,2362.69,
1612,mantu singh ke jamin me pokhar khudai,5001349601,fullidumar,BANKA,kenduar panchayat,1,1,1,25.0311611111111,86.8273083333333,866.77,seems present earlier also
1613,Khet pokhari nirman,5001444395,fullidumar,BANKA,south kojhi panchayat,1,1,1,24.8870972222222,86.7825222222222,877.4,
1614,0545011011/IF/20227751,5002326148,fullidumar,BANKA,south kojhi panchayat,1,1,1,24.9038666666667,86.807725,2957.38,seems already present but minor changes not visible if some rework is done
1618,GRAM GHORGHARA ME HARI YADAV KE KHET ME POKHAR,5001112189,belhar,BANKA,laurhia panchayat,1,1,1,24.8812472222222,86.5473694444444,532.12,
1620,JIROPAHARI ME POKHAR NIRMAN,5001451927,chanan,BANKA,asura panchayat,1,1,0,24.7784777777778,86.6480444444445,1443.53,no water is contructed pond
1621,GHANSHYAM RAY KE JAMIN PAR POKHAR NIRMAN,5002682147,chanan,BANKA,asura panchayat,1,1,1,24.7572333333333,86.6080722222222,1154.33,
1631,TONAPATHER ME SANTOSHI YADAV KA POKHAR NIRMAN,5001009822,chanan,BANKA,dhanubsar panchayat,1,1,0,24.8165319,86.6925124,920.28,
1632,LAKRAHA ME YOGENDRA THAKUR KA KHET POKHARI NIRMAN(,5001227278,chanan,BANKA,dhanubsar panchayat,1,,1,24.7797952,86.66585836,1063.2,
1633,KHASARA NO- 354 AND 360 KE BICH KHET POKHARI NIRMAN,5002430620,chanan,BANKA,koriya panchayat,1,1,1,24.6254550143218,86.715735479079,2870.06,
1640,GARBHUDIH GRAM ME CHUDKA BESRA KE JAMIN PAR TALAB NIRMAN KARIYA,5002257588,chanan,BANKA,south barney panchayat,1,1,1,24.7140944444444,86.6462333333333,1575.62,
1641,GRAM BICH BHELWA ME RAJENDRA THAKUR KE JAMIN PAR POKHAR NUMA BANDH KA NIRMAN,5001879938,chanan,BANKA,south kaswa basila panchayat,1,1,1,24.8071305555556,86.6211027777778,666.62,
1643,RAGHU SINGH KE NIJI JAMIN PAR TALAB NIRMAN,5001102901,chanan,BANKA,west katsakra panchayat,1,1,1,24.8096472222222,86.5449055555556,1097.55,already existed before 2017 but may be some contruction is done
1644,Mahadavabaran me bandh,5001442164,katoria,BANKA,basmatta panchayat,1,1,1,24.69485,86.8777083333333,1160.56,repaired work
1647,Harilal das ka pokhar,5001392660,katoria,BANKA,kathoun panchayat,1,1,1,24.7316472222222,86.6925571491214,787.43,
1648,fuliya devi ke jamin par khet-pokhari,5000938840,katoria,BANKA,lakrama panchayat,1,1,0,24.6059611111111,86.8889444444444,1032.85,it seems only diging take place as not water in that structure
1650,Anil pd yadav ka khet pokhar,5001444834,katoria,BANKA,lakrama panchayat,1,1,1,24.6128083333333,86.9011194444444,280.79,
1652,wc,5001391510,barahat,BANKA,mahua panchayat,1,1,1,24.8345305555555,87.0489666666667,2672.07,
1653,gaurav ray s/o manoj ray ke niji jamin me khet pokhari nirman kary,5001029211,garhpura,BEGUSARAI,malipur,1,1,1,25.7034111111111,86.1721944444444,393.6,
1654,ranjeet kumar mahto s/o kamleshwari mahto ke niji jamin mai pokhar nirman kary,5001274195,garhpura,BEGUSARAI,maujiharisingh,1,1,1,25.6335638888889,86.2459777777778,379.97,
1656,dharmender kr ke niji jamin,5000988236,cheria bariarpur,BEGUSARAI,basahi,1,1,1,25.6222111111111,86.0471416666667,559.04,
1657,0517010007/IF/20244791,5002475139,cheria bariarpur,BEGUSARAI,bikarampur,1,1,1,25.6090666666667,86.05895,4827.69,seems some basic merging of ponds is done
1660,MIRTUNJAY SINGH S/O NARESH SINGH KE KHET ME POKHAR NIRMAN,5001256104,birpur,BEGUSARAI,naula,1,1,1,25.5471166666667,86.0494277777778,3789.88,
1661,LAKHPATI POKHAR KHET ME POKHAR KA NIRMAN,5001256114,birpur,BEGUSARAI,naula,1,1,1,25.5466583333333,86.0500583333333,595.15,
1665,Wad no. 08 me dorik ray pita lt harihar ray ke niji jamin pe khet pokhar ka nirman kary,5001274403,bachhwara,BEGUSARAI,bishanpur,1,1,1,25.5732055555555,85.8372444444444,474.92,
1666,BADHMARIYA POKHAR,5001180407,barauni,BEGUSARAI,babhangama,1,1,1,25.4826555555555,86.1139027777778,6531.3,seems some repair work
1669,khet pokhari,5000938896,barauni,BEGUSARAI,neenga,1,1,1,25.4712527777778,86.0650555555555,201.55,
1676,0517015011/WC/20231712,5001110237,sahebpur kamal,BEGUSARAI,sadpur (eest),1,1,1,25.4691027777778,86.3655111111111,2890.56,
1684,Nirman Karya,31012207109,baitalpur,DEORIA,badhya,1,1,1,26.5621888888889,83.7270694444445,6181.96,it seem repair work
1685,MITTI / KHADANJA / INTERLOCKING NIRMAN KARYA,31012302260,baitalpur,DEORIA,barari-ii,1,1,1,26.6146027777778,83.746975,1375.59,no large visible changes even if repaired
1686,Nirman Karya,31012207186,baitalpur,DEORIA,barnai,1,1,1,26.5737777777778,83.7606777777778,3372.55,no large visible changes even if repaired
1687,Nirman Karya,31012207199,baitalpur,DEORIA,belawar dubawar,1,1,1,26.567533572731,83.7631081230302,8804.49,no large visible changes even if repaired
1689,MITTI / KHADANJA / INTERLOCKING NIRMAN KARYA,31012302234,baitalpur,DEORIA,bhagwanpur chaubey,1,1,1,26.5750055555556,83.7825055555556,1411.51,no large visible changes even if repaired
1691,Nirman Karya,31012207241,baitalpur,DEORIA,bishunpur murar,1,1,1,26.6667111111111,83.7696888888889,1662.89,no large visible changes even if repaired
1693,Nirman Karya,31012207315,baitalpur,DEORIA,jaitpura,1,1,1,26.558175,83.7663694444445,1118.97,no large visible changes even if repaired
1694,Nirman Karya,31012207392,baitalpur,DEORIA,karanj,1,1,1,26.6938,83.7333508712239,851.7,no large visible changes even if repaired
1695,mitti /khadanja/interlocking/pokhari khudai karya,31012301513,baitalpur,DEORIA,mahuawa second,1,1,1,26.6229417885909,83.7443761731689,1096.96,no large visible changes even if repaired
1696,kharnahi pokhari khudai kary,31010733350,baitalpur,DEORIA,parsauna,1,1,1,26.5839535682724,83.7660014578216,2867.61,no large visible changes even if repaired
1699,Mitti Bharai Karya/safai Karya,31012261251,baitalpur,DEORIA,rampur dube,1,1,1,26.6164513518965,83.7743118676778,1965.77,no large visible changes even if repaired
1700,Mundera tiwari me phokhari ki khudai kary,31010731974,baitalpur,DEORIA,sakrapar bujurg,1,1,1,26.5868833333333,83.7675,2236.25,no large visible changes even if repaired
1701,mitti,31012353329,baitalpur,DEORIA,sohsa,1,1,1,26.6420027777778,83.7286861111111,1886.72,no large visible changes even if repaired
1703,3155022010/WC/9454356684,31012128468,bhaluani,DEORIA,bardiha nathmal,1,1,1,26.4007944444444,83.7538856374472,461.3,no large visible changes even if repaired
1705,pokhari,31012257667,bhaluani,DEORIA,gader,1,1,1,26.3982444444444,83.7837388888889,1490.81,
1706,iay,31012312888,bhatni,DEORIA,rupai,1,1,1,26.443125,83.8953972222222,1234.32,
1707,Bahorwa me pokhri khudai karya,31011885115,deoria sadar,DEORIA,bahorawaa,1,1,1,26.4750305555556,83.7462916666667,2234.39,
1708,~ Gram panchyat barva upadhaya me pokhri khudai karya,31011288676,deoria sadar,DEORIA,barava,1,1,1,26.4309295779991,83.8309654357316,1599.75,
1711,Jayshiv ke ghar ke piche pokhri khudai karya,31012075469,deoria sadar,DEORIA,dulahu,1,1,1,26.4211861111111,83.8542638888889,2971.98,
1712,Keshav yadav ke ghar ke pachim pokhri kudai karya,31012089397,deoria sadar,DEORIA,fulvariakaran,1,1,1,26.4417946197083,83.7605738665529,2624.1,
1715,Ranighat me pokhri khudai karya,31012382604,deoria sadar,DEORIA,ranighat,1,1,1,26.4320333333333,83.7758072207455,1982.43,
1718,RAJIK KE GHAR KE SAMANE WALI POKHARI KI KHUDAI,31011631528,desai deoria,DEORIA,bhatni dadan,1,1,1,26.6987413792218,83.8094085004952,356.21,
1719,POKHARI GADAHI KI KHUDAI AWAM SUNDARIKARAN KARY,31011732811,desai deoria,DEORIA,deoria nakchhed,1,1,1,26.6838549420062,83.8336399921013,1455.68,
1721,RAMCHANDRA K KHET K PAS WALI POKHARI KI KHUDAI,31011635699,desai deoria,DEORIA,hetimpur,1,1,1,26.7303382365932,83.8179668643639,2047.16,
1722,BRAHM ESTHAN KE PURAB WALI POKHARI KI KHUDAI,31012300034,desai deoria,DEORIA,pakari veerbhadra,1,1,1,26.679242250993,83.8206900090764,809.72,
1724,VISHWANTH KE KHET PAS POKHARI KI KHUDAI AUR SUNDARIKARN KARY,31010639792,desai deoria,DEORIA,pipara madan gopal,1,1,1,26.6414523662113,83.7847573599353,1423.01,
1725,BARAYITHA POKHARI KI KHUDAI KARY,31010729047,desai deoria,DEORIA,rampur dullah,1,1,1,26.6659863064051,83.7964617120231,4483.34,no any visilble change
1726,RAJA WALI POKHARI KI KHUDAI KARY,31012639168,desai deoria,DEORIA,sonbarsa,1,1,1,26.6751494122535,83.8149664044888,2060.22,
1728,POKHARI KUDAI,31011651892,gauri bazar,DEORIA,asanahar,1,1,1,26.5633479282707,83.6832357172702,1158.4,
1730,POKHARI KUDAI,31011651901,gauri bazar,DEORIA,asanahar,1,1,1,26.5631914012866,83.6837311437019,1070.64,
1731,W.C.,31012301001,gauri bazar,DEORIA,bishunpura,1,1,1,26.6501222222222,83.6760166666667,3002.31,
1733,WC,31012729528,gauri bazar,DEORIA,shivpur,1,1,1,26.4327918583327,83.8387472222222,1362.72,
1736,miti,31012608928,pathardewa,DEORIA,devghat,1,1,1,26.5411139547008,83.9258701614979,4804.43,
1738,gata no 376 pokhri ka jirnodhar karya,31012828206,pathardewa,DEORIA,masjidiya,1,1,1,26.51348152,83.96420865,2008.64,
1740,gata no 43 kh pokhri ki khudai/jirnodhar karya Work Start Date,31012828154,pathardewa,DEORIA,noniya patti,1,1,1,26.5817232,83.9606136,1231.11,
1743,gata no 768 pokhri ka jirnodhar,31012828743,pathardewa,DEORIA,visunpura,1,1,1,26.5331416666667,83.9460021602333,2175.36,no significance change is visible
1744,mitti kary,31012606819,rampur karkhana,DEORIA,karmaha,1,1,1,26.5923861111111,83.797226790765,138.01,no significance change is visible
1745,mitti kary,31012606826,rampur karkhana,DEORIA,karmaha,1,1,1,26.590825,83.8028007858671,2136.7,no significance change is visible
1746,mitti kary,31012712313,rampur karkhana,DEORIA,kusamha urf belwa,1,1,1,26.5152608881072,83.8105264478009,114.88,
1750,POKHARI,31012300067,bhaluani,DEORIA,khukhundu,1,1,1,26.3977577,83.8451339,3227.92,
1751,9454339063,31011632695,bhaluani,DEORIA,narouli bhikham,1,1,1,26.3890132877042,83.8485984682592,397.81,
1752,POKHARI,31012260745,bhaluani,DEORIA,narouli bhikham,1,1,1,26.3952850516264,83.8351311708535,2936.03,
1756,hftdhf,31011019808,bhatni,DEORIA,noonkhar,1,1,1,26.4283732779216,83.8792008361658,1276.3,
1757,POKHARI KUDAI,31011654290,gauri bazar,DEORIA,banasahiya,1,1,1,26.6147834989344,83.6842176664054,3099.84,
1758,pokhri,31013181363,lar,DEORIA,kharvaniya,1,1,1,26.1796064319628,83.9718120297015,7201.9,
1760,सागर पोखरी की खुदाई एवं जीर्णोधार कार्य,31012718209,barhaj,DEORIA,khudiya bujurg,1,1,0,26.3593252981222,83.6546975459857,17656.8,digging work
1763,3155022010/WC/9454356692,31012128546,bhaluani,DEORIA,bardiha nathmal,1,1,1,26.3998562500844,83.7534733871982,281.93,
1764,3155022010/WC/9454357756,31012128605,bhaluani,DEORIA,bardiha nathmal,1,1,1,26.3987414162528,83.7498676881593,1580.91,
1765,pokhari khudai,31012197493,bhaluani,DEORIA,bhaluani,1,1,1,26.3723919351828,83.7753615627636,1388.93,work is not visible in image
1766,pokhari khudai,31012197510,bhaluani,DEORIA,bhaluani,1,1,1,26.3707858781315,83.7686682409005,3806.81,work is not visible in image
1767,pokhari khudai,31012197524,bhaluani,DEORIA,bhaluani,1,1,1,26.3746842179719,83.7694871254369,2126.49,
1768,POKHARI,31012270601,bhaluani,DEORIA,bhaluani,1,1,1,26.3710763067796,83.7712151441091,3255.19,
1769,9454339076,31011632689,bhaluani,DEORIA,dumri,1,1,1,26.3708753934338,83.7526483144048,1108.02,
1770,9454339033,31011632742,bhaluani,DEORIA,jarar ramman,1,1,1,26.3549922059639,83.7570646013031,1409.03,
1771,POKHARI,31012270570,bhaluani,DEORIA,karamtar ganga,1,1,1,26.3522719920072,83.7365629124776,572.53,
1772,9454339000,31011632693,bhaluani,DEORIA,karaudi,1,1,1,26.3782183856885,83.7334684263158,2178.13,
1773,pokhari khudai,31012197555,bhaluani,DEORIA,korya,1,1,1,26.3714222601739,83.781611726875,5052.81,work is not visible in image
1774,POKHARI,31012260732,bhaluani,DEORIA,kuiya,1,1,1,26.3928992500347,83.7422600321149,2897.21,work is not visible in image
1775,pokhari,31012257939,bhaluani,DEORIA,pandey fulvariya,1,1,1,26.3264678380189,83.7383416972811,1094.56,
1776,9454339014,31011632722,bhaluani,DEORIA,patkhauli,1,1,1,26.3670183546453,83.7570467819552,3445,
1777,pokhari,31012257946,bhaluani,DEORIA,patkhauli,1,1,1,26.3705994032664,83.7581845125223,777,
1778,talab,31012257979,bhaluani,DEORIA,pipra puran,1,1,1,26.3343166666667,83.7417555555556,1526.75,
1781,9454339099,31011632640,bhaluani,DEORIA,ruchapar,1,1,1,26.321847429744,83.7494608178687,679.16,
1783,9454339087,31011632627,bhaluani,DEORIA,sonbarsha,1,1,1,26.3684241998213,83.7836575704739,1955.28,
1784,9454339059,31011632747,bhaluani,DEORIA,tarkulha,1,1,1,26.3839291422332,83.7689873254556,898.65,work is not visible by image
1785,9454339019,31011632678,bhaluani,DEORIA,tenua chaubey,1,1,1,26.4045180651649,83.7408808435448,5180.84,
1786,pokhari,31012258012,bhaluani,DEORIA,thakur deoria,1,1,1,26.37393157,83.7402767,318.78,"already present before , might some digging take place"
1791,POKHARI,31012270599,bhaluani,DEORIA,fatehpur,1,1,1,26.4190531065478,83.6488840977328,3637.13,
1793,9454339060,31011632648,bhaluani,DEORIA,korya,1,1,1,26.3640446117641,83.7130455984926,2044.49,
1797,9454339088,31011632691,bhaluani,DEORIA,nai khas,1,1,1,26.3983317445374,83.7133541993537,3889.02,
1799,W.C.,31012519872,gauri bazar,DEORIA,diwan pokhara,1,1,1,26.5449876108909,83.6411038257666,1385.36,
1802,BITHALPUR SCHOOL KE PAAS POKHARI SUNDARIKARAN GATA SANKHYA 107,31012606547,rudrapur,DEORIA,bitthalpur,1,1,1,26.4263990589733,83.5780677139016,1880.73,
1804,RAJESH YADAV KE GHAR KE PAS POKHARI KHUDAI KARYA,31012562879,rudrapur,DEORIA,daharauli bujarg,1,1,1,26.4197109179717,83.5623006765624,2142.39,already build and no visible change can be seen in image
1807,KESHAW KE GHAR KE PAAS POKHARI KHUDAI AURESUNDARIKARAN,31012606939,rudrapur,DEORIA,jagdishpur,1,1,1,26.4231166966634,83.5390084034553,524.42,already build and no visible change can be seen in image
1808,LAMHUA POKHARI KI KHUDAI KARYA GATA SANKHYA 76 G,31010809763,rudrapur,DEORIA,jamira,1,1,1,26.3904618301856,83.6285055849366,6191.77,
1809,GATA SANKHYA 575 KI POKHARI KHUDAI KARYA,31011956419,rudrapur,DEORIA,jogiya bujarg,1,1,1,26.4682364914884,83.5744388888889,13255.71,
1810,JUNIOR HIGH SCHOOL KE SAMNE POKHARI KHUDAI KARYA,31011961450,rudrapur,DEORIA,maheshpur,1,1,1,26.4971999999499,83.591749001022,1158.92,already build and slight improvent can be seen
1812,mitti kary,31012164393,bhatpar rani,DEORIA,tikampar,1,1,1,26.2933698974566,84.0577454876669,3980.95,
1813,~ G.P.PARASARAY KE KURMINPURWA ME BADKA TALAB KA JIVTHODHAR KARY,31011946192,itiathok,GONDA,birmapur,1,1,1,27.2628821161382,82.037244697927,1542.05,
1814,G.P.MOHANPUR ASIDHA ME DAMDARI TALAB,31012207607,itiathok,GONDA,mohanpur ashidha,1,1,1,27.2871835,82.0699086,1525.77,
1815,G.P.RAMWAPUR NAYAK ME BKSHI TALAB KA JIVTHODHAR KARY,31011424720,itiathok,GONDA,ramwapur nayak,1,1,1,27.2852916666667,82.091975,1018.11,
1816,रामकेवल के खेत के पास तालााब जीर्णोधार कार्य,31011674806,pandri kripal,GONDA,pipra bhitaura,1,1,1,27.1473779147661,82.1102871016742,738.56,already present before 2017 and difficult to conclude work done at 2017
1817,बेलही तालाब जीर्णोध्,31011172482,pandri kripal,GONDA,tulsipur kodri,1,1,1,27.1996820948007,82.0133562356556,2619.7,
1818,THOTHIVA TALAB KA JIRDODHAR WORK,31012113983,shriduttganj,BALRAMPUR,trigunayatpur,1,1,1,27.28740862232,82.2579679236044,949.32,already build and no visible change can be seen in image
1819,G.P. Sonwar me Nanhe ke khet ke pas Talab ka Nirman karya,31005703571,haldharmau,GONDA,sonwar,1,1,1,27.1488388516409,81.6972322742142,278.27,already build and no visible change can be seen in image
1820,पूरेबदल में बदलपुरवा में बडका तालाब का खुदाई/सफाई कार्य,31011904230,katra bazar,GONDA,pure badal,1,1,1,27.2660351593662,81.830874409235,10930.67,already build and no visible change can be seen in image
1822,9454347090,31010752063,campierganj,GORAKHPUR,kahrauli,1,1,1,27.0778369617686,83.1955109683236,3873.72,
1823,9454347004,31010908590,campierganj,GORAKHPUR,mirhiriya,1,1,1,27.033953277223,83.2040869782317,408.87,already build and no visible change can be seen in image
1824,gram panchayat hirua me joginder ke khet ke pass pokhari khudai karya,31011630005,jangal kodia,GORAKHPUR,hiruwa,1,1,1,26.9555314878709,83.2180026990744,2458.68,already build and no visible change can be seen in image
1826,rakhukhor me makkhan ke ghar ke piche pokhari khuai karya,31012008863,jangal kodia,GORAKHPUR,rakhukhor,1,1,1,26.9696619903966,83.2553958917848,3456.08,already build and no visible change can be seen in image
1827,BANDHA,31012059072,khajani,GORAKHPUR,dhuvaha,1,1,1,26.6856714421983,83.2577872952052,2168.9,already build and no visible change can be seen in image
1829,wc,31011177350,piprauli,GORAKHPUR,banspar,1,1,1,26.7349757338936,83.2507012433179,4322.47,already build and no visible change can be seen in image
1830,1,31011792937,piprauli,GORAKHPUR,khanimpur,1,1,1,26.7277763124725,83.2811089443808,2821.06,already build and no visible change can be seen in image
1831,BAN POKHARE KI KHUDAI/SAFAI KARYA,31010806456,piprauli,GORAKHPUR,khoriya bhiti,1,1,1,26.679462273535,83.3011262067431,6658.05,already build and no visible change can be seen in image
1833,1,31012569683,piprauli,GORAKHPUR,pichhaura,1,1,1,26.6805181493928,83.338089930482,1714.49,already build and no visible change can be seen in image
1834,1,31011798206,piprauli,GORAKHPUR,rautpar saraiya,1,1,1,26.7371081107443,83.2680241727514,3112.52,
1835,1,31012556276,piprauli,GORAKHPUR,siyer,1,1,1,26.6932635714156,83.2846342032201,7715.88,already build and change is also reflected in image
1836,WC,31011306603,piprauli,GORAKHPUR,tenuwan,1,1,1,26.7152749612442,83.2199034416343,1142.44,already build and change is also reflected in image
1838,wc,31010964120,pipraich,GORAKHPUR,agaya,1,1,1,26.8089367684856,83.5306431888895,600.73,
1839,wc,31010964141,pipraich,GORAKHPUR,agaya,1,1,1,26.8085537668203,83.5264700638373,1087.74,
1840,pokhari,31010798521,pipraich,GORAKHPUR,araji chauri,1,1,1,26.7804252145511,83.4787197025045,809.07,already build and no visible change can be seen in image
1844,POKHARI,31010806124,pipraich,GORAKHPUR,baraipur,1,1,1,26.7703627459088,83.5635048355248,1968.79,
1846,POKHARI KHUDAI KARY,31010862507,pipraich,GORAKHPUR,barsaini,1,1,1,26.7535558542424,83.5969389184054,2490.15,
1847,wc,31010970830,pipraich,GORAKHPUR,basdila rausar,1,1,1,26.7530043444861,83.582775,2917.68,
1848,wc,31010970834,pipraich,GORAKHPUR,basdila rausar,1,1,1,26.7514264105903,83.5830338625895,3401.41,
1849,rod,31012343195,pipraich,GORAKHPUR,harpur,1,1,1,26.7924486831873,83.5901149762615,2767.01,
1851,rod,31012343607,pipraich,GORAKHPUR,imiliya urf bijahara,1,1,1,26.7566906379933,83.4924424717745,5814.3,
1852,pokhari,31012631432,pipraich,GORAKHPUR,kaithawaliya,1,1,1,26.7462900193101,83.5695583333333,1155.72,
1853,pokhari,31012631597,pipraich,GORAKHPUR,luhasi,1,1,1,26.8016861111111,83.5736611111111,1031.49,already build and no visible change can be seen in image
1854,POKHARI KHUDAI,31011778284,pipraich,GORAKHPUR,maharaji,1,1,1,26.7845868158867,83.5115555555556,3239.29,already build and no visible change can be seen in image for 2017
1855,pokhari,31010971463,pipraich,GORAKHPUR,mahmudabad,1,1,1,26.8132971403009,83.4821932774008,4815.94,
1856,POKHARI KHUDAI,31011724563,pipraich,GORAKHPUR,muderi garhawa,1,1,1,26.8158212625972,83.5370071991648,623.35,already build and no visible change can be seen in image for 2017
1857,POKHARI KHUDAI,31011778334,pipraich,GORAKHPUR,naiyapar khurd,1,1,1,26.7834909079037,83.4914611512058,707.2,
1860,POKHARI KHUDAI,31012556042,pipraich,GORAKHPUR,rithiya,1,1,1,26.8308232512651,83.5556302108056,5324.47,
1861,POKHARA,31010820799,pipraich,GORAKHPUR,saranda,1,1,1,26.7739411884243,83.5055831925388,5905.6,
1866,mitti work,31011704817,brahmpur,GORAKHPUR,mithabel,1,1,1,26.5528345905834,83.5820262351806,1109.72,already build and no visible change can be seen in image for 2017
1869,rod,31012632097,pipraich,GORAKHPUR,jagdishpur,1,1,1,26.7467553982822,83.5421195812375,2044.69,
1870,pokhari,31012631651,pipraich,GORAKHPUR,madapar,1,1,1,26.7465366857623,83.518848532821,716.34,
1873,52751,31010834788,gaugaha,GORAKHPUR,baupar,1,1,1,26.4158747994413,83.4329473021477,3467.48,
1877,POKHRA KHUDAI,31011445972,gaugaha,GORAKHPUR,bhiti jamin,1,1,1,26.3584980975661,83.4695280618321,3944.92,
1878,51582,31010873543,gaugaha,GORAKHPUR,chakmali urf bithuwa,1,1,1,26.4340680436278,83.4112860071679,2420.44,
1879,51599,31010935838,gaugaha,GORAKHPUR,demusa,1,1,0,26.4472686,83.4230083,,not visible clearly
1880,POKHARA,31010723199,gaugaha,GORAKHPUR,devkali,1,1,1,26.424627208657,83.4242419480068,3639.04,already build and no visible change can be seen in image for 2017
1881,348560,31010888210,gaugaha,GORAKHPUR,dihulpar,1,1,1,26.4051104588617,83.4478505945827,1389.75,
1882,351625,31010889363,gaugaha,GORAKHPUR,gangupar,1,1,1,26.4424339561813,83.3907048674155,680.28,already build and no visible change can be seen in image for 2017
1883,349560,31010889374,gaugaha,GORAKHPUR,hatawa,1,1,1,26.4292786935851,83.452679704028,2446.12,
1884,348992,31010889376,gaugaha,GORAKHPUR,jamin lauharpur,1,1,1,26.3672266199921,83.4542071138418,4126.46,already build and no visible change can be seen in image for 2017
1886,350956,31010889378,gaugaha,GORAKHPUR,jivkar,1,1,1,26.4392001338764,83.473535582505,732.34,already build and no visible change can be seen in image for 2017
1887,46432,31010901966,gaugaha,GORAKHPUR,jivkar,1,1,1,26.4043011256786,83.4303357830356,1267.98,
1888,pokhra khudai,31011622039,gaugaha,GORAKHPUR,jivkar,1,1,1,26.4044711921413,83.4271821287331,4564.4,already build before 2017
1890,348804,31010888206,gaugaha,GORAKHPUR,lahidandi,1,1,1,26.4522493125048,83.3946896617705,2438.56,already build before 2017
1892,348576,31010888202,gaugaha,GORAKHPUR,pajupar,1,1,1,26.3649266041634,83.4642906398647,1812.99,
1893,POKHARA,31010723293,gaugaha,GORAKHPUR,pichaura,1,1,1,26.4474552747949,83.4226434871552,7392.992,already build before 2017
1894,48373,31010821861,gaugaha,GORAKHPUR,rakahat,1,1,1,26.4099090251539,83.4833442410858,612.62,
1895,pokhra khudai,31011613588,gaugaha,GORAKHPUR,ravatpar,1,1,1,26.3885173579909,83.4529032633595,1193.1,already build before 2017 and changes visible in water in 2018
1896,53390,31010927988,gaugaha,GORAKHPUR,riyav,1,1,1,26.3929617,83.5068308,12859.67,already build before 2017 and no visible changes in image
1897,pokhra khudai,31011613599,gaugaha,GORAKHPUR,sakari,1,1,1,26.4271748740557,83.4206173372042,1719.16,
1899,48231,31010901963,gaugaha,GORAKHPUR,thathauli,1,1,1,26.4384528597351,83.4253803070728,4330.34,
1900,pokhra khudai,31011578854,gaugaha,GORAKHPUR,tikari,1,1,1,26.4120189216885,83.4444860442022,338.55,already build before 2017 and no visible changes in image
1901,WC,31010918971,kauri ram,GORAKHPUR,jagarnathpur,1,1,1,26.4917314203893,83.4357556365312,824.47,new build pond/large extension of previous
1902,rc,31010797104,kauri ram,GORAKHPUR,rajgarh,1,1,1,26.4868222668619,83.4134346742031,1238.73,
1903,TENGARI ME MARKANDEY KE DARWAJE PAR POKHRAI KHUDAI KARY,31011844471,uruwa,GORAKHPUR,tengari,1,1,1,26.5109367,83.333285,677.43,already build before 2017 and no visible changes in image
1904,wc,31011169956,gaugaha,GORAKHPUR,newas,1,1,1,26.4946701905094,83.2968120527341,2458.9,already build before 2017 and no visible changes in image
1905,MITTI KARYA,31011516768,khajani,GORAKHPUR,katghar,1,1,1,26.6796688655425,83.2448982270953,3905.5,already build before 2017 and no visible changes in image
1906,MITTI KARYA,31011281306,khajani,GORAKHPUR,kathaicha vindan,1,1,1,26.6146328477104,83.2741735361132,2519.95,already build before 2017
1907,pokhra,31011775821,khajani,GORAKHPUR,kewatali,1,1,1,26.6322848660025,83.2198292182846,596.33,already build before 2017
1909,POKHRA,31011795799,khajani,GORAKHPUR,satuwabhar,1,1,1,26.6732948814678,83.2220795126636,4562.02,already build before 2017
1910,1,31011699899,piprauli,GORAKHPUR,belwadandi,1,1,1,26.687089703993,83.2482103510219,1549.9,
1911,rc,31011611497,sahjanawa,GORAKHPUR,bheusa,1,1,1,26.6280501707401,83.1687968907452,3126.79,
1912,pokhra,31012623746,sahjanawa,GORAKHPUR,gidaha,1,1,1,26.6094966710133,83.1821576225732,171.18,
1914,BADIHARI KE PASCHHIM POKHRA KHUDAI KARY,31011626789,uruwa,GORAKHPUR,baluwa urf balusar,1,1,1,26.535756792757,83.2168838698681,1688.88,already build before 2017
1915,BHARTHARI ME RAMNYAN KE GHAR KE SAMNE POKHRA KHUDAI KARY,31011649458,uruwa,GORAKHPUR,bharthari,1,1,1,26.5206598428979,83.2742360940961,1711.78,already build before 2017
1916,pokhara,31012649113,uruwa,GORAKHPUR,hariharpur,1,1,1,26.4957169377459,83.2688897340916,4075.78,already build before 2017
1917,POKHRA KHUDAI KARY,31011628885,uruwa,GORAKHPUR,harredand bujurg,1,1,1,26.5079031074816,83.2227807497864,1300.79,already build before 2017
1918,pokhara,31012649149,uruwa,GORAKHPUR,hata khurd,1,1,1,26.511737543199,83.2715666666667,1677.74,already build before 2017
1919,pokhara karya,31012650899,uruwa,GORAKHPUR,hudari,1,1,1,26.5453910441384,83.2164457567236,629.22,
1923,pokhara,31012621184,uruwa,GORAKHPUR,malhanpar,1,1,1,26.5397093499921,83.2848737744343,604.17,
1924,POKHRA KHUDAI KARY V SUNDARIKARN KARY,31011628771,uruwa,GORAKHPUR,narayanpur,1,1,1,26.5366663734715,83.2533239724989,3643.89,
1925,POKHRA KHUDAI KARY,31011628774,uruwa,GORAKHPUR,narayanpur,1,1,1,26.5376139755866,83.2508369456137,1465.35,already build before 2017
1928,pokhara,31012618801,uruwa,GORAKHPUR,pidiya,1,1,1,26.5512730544961,83.2973703680181,3799.22,already build before 2017
1929,pokhara,31012616938,uruwa,GORAKHPUR,ranipur,1,1,1,26.4858733125576,83.2523900469561,768.8,already build before 2017
1931,POKHARA,31010799513,gaugaha,GORAKHPUR,badaila,1,1,1,26.3621565768779,83.4096388888889,3387.91,already build before 2017
1933,POKHARA,31010723136,gaugaha,GORAKHPUR,baikunthpur,1,1,1,26.4690775954545,83.335649468026,6497.86,already build before 2017
1934,55071,31010873497,gaugaha,GORAKHPUR,baikunthpur,1,1,1,26.4522624648118,83.3369021404797,1710.96,already build before 2017
1937,WC,31012636983,gaugaha,GORAKHPUR,bariyar,1,1,1,26.4745247755179,83.3162113785846,5537.21,its effect can be seen in begining of 2018
1939,pokhra khudai,31011475724,gaugaha,GORAKHPUR,chadi,1,1,1,26.4702412438064,83.2998325077148,1550.85,already build before 2017
1940,pokhra khudai,31011564625,gaugaha,GORAKHPUR,dehribhar,1,1,1,26.4229331544195,83.3413091764044,2465.48,clearly work of 2017 is visible
1941,48562,31010925009,gaugaha,GORAKHPUR,garahi,1,1,1,26.3650928846017,83.3651205576805,3440.81,already build before 2017
1943,POKHARA,31010723225,gaugaha,GORAKHPUR,kauwadil,1,1,1,26.3562155098102,83.409947490756,1298.03,
1947,48227,31010918032,gaugaha,GORAKHPUR,padauli,1,1,1,26.3437482452719,83.4172181415672,1636.69,already build before 2017
1948,48989,31010935861,gaugaha,GORAKHPUR,rampur baghaura,1,1,1,26.3870478508053,83.4151639822296,1929.36,
1949,48046,31010911956,gaugaha,GORAKHPUR,samay sthan bhiti,1,1,1,26.3495317316051,83.4121901098279,2336.82,
1950,47726,31010910309,gaugaha,GORAKHPUR,semari,1,1,1,26.3538130789444,83.3866114937864,3259.26,already build before 2017
1953,pokhara,31012585203,uruwa,GORAKHPUR,barpar mafi,1,1,0,26.4464907086133,83.2800561575235,1713.7,already build before 2017 and no water present as seen in image
1955,Pokhara khudai karya,31011317396,uruwa,GORAKHPUR,devrajpar bujurg,1,1,1,26.4341930261557,83.261260950305,3350.57,already build before 2017 and no water present as seen in image
1957,pokhara,31012621146,uruwa,GORAKHPUR,marchi,1,1,1,26.4824945744239,83.2649087940809,1989.63,image clearly show that work is done in 2017 year
1958,PARMBHANSH BABA KE BAGAL ME POKHRA KHHUDAI KARY,31011564518,uruwa,GORAKHPUR,naraichpar,1,1,1,26.4993164902867,83.2831357161525,4609.24,image clearly show that work is done in 2017 year
1959,pokhara,31012616613,uruwa,GORAKHPUR,rayeepur,1,1,1,26.4415930486798,83.240620025979,1207.98,
1960,POKHRA KHUDAI KARY,31011628729,uruwa,GORAKHPUR,rukunpur,1,1,0,26.4260127335519,83.2273024375376,1825.64,very small amount of water is present in each year inside pond
1964,बदरहिया गाव के पास सार्वजनिक पोखरा खुदाई कार्य,31012071069,khadda,KUSHI NAGAR,kop jangal,1,1,0,27.1555173240726,83.8121628011561,602.42,"only digging take place , no water is present in pond"
1969,3172005055/WC/9454347940 ~~~~ BADAKI CHHILAHI POKHARI KI KHUDAI KARY,31010264349,hata,KUSHI NAGAR,karmahi,1,1,1,26.7112933534493,83.7598907492171,1028.78,
1970,3172005055/WC/9454351136 ~~~~ CHOTAKI CHHILAHI POKHARI KI KHUDAI KARY,31010264362,hata,KUSHI NAGAR,karmahi,1,1,1,26.7136494024611,83.7579303417271,883.47,
1973,DHOBSHI POKHARI KI KHUDAI KARY,31012743037,hata,KUSHI NAGAR,mahuai,1,1,1,26.7064497064841,83.7615970435866,1079.31,build before 2017 and there seem no significant change after 2017 in images
1974,SHAMSHAN GHAT WALI POKHARI KI KHUDAI KARY,31012743039,hata,KUSHI NAGAR,mahuai,1,1,1,26.7052441818177,83.7630440576123,2370.81,
1978,GRAM PANCHAYAT LAXMIPUR ME PITAMBAR WALI POKHRI KA MITTI KHUDAI & SUDARIKARN KARY,31010585916,kaptainganj,KUSHI NAGAR,laxmipur,1,1,1,26.9186114215308,83.5715693317904,1962.04,already build before 2017
1980,wc,31011786231,motichak,KUSHI NAGAR,barava,1,1,1,26.8267978669303,83.6680462304267,1810.34,already build before 2017
1981,wc,31011608530,motichak,KUSHI NAGAR,bartha,1,,1,26.8632319542657,83.806175087117,616.74,
1982,wc,31011786718,motichak,KUSHI NAGAR,bhaisahi,1,1,1,26.8047111613336,83.6837679502072,5070.21,already build before 2017
1983,wc,31011447604,motichak,KUSHI NAGAR,laxmipur/mathuli,1,1,0,26.8709467548077,83.750720160842,,"it seem there is no water around 2016-2018 , difficult to comment about contruction/repair during 2017"
1984,wc,31011447631,motichak,KUSHI NAGAR,laxmipur/mathuli,1,1,1,26.8739855059257,83.7547101217097,2174.5,already build before 2017
1985,3172006044/WC/9454348358,31011309511,motichak,KUSHI NAGAR,naryanpur/mathuli,1,1,1,26.8800631639331,83.7479640572865,1423.2,"it seem there is no water around 2016-2018 , difficult to comment about contruction/repair during 2017"
1986,wc,31011791390,motichak,KUSHI NAGAR,paikauli,1,1,1,26.7962029510045,83.7135007277583,3785.43,
1989,wc,31011911827,motichak,KUSHI NAGAR,pattan,1,1,1,26.7878433502565,83.6956608826585,653.53,
1990,wc,31012197809,motichak,KUSHI NAGAR,pokharbhinda-2,1,1,1,26.7769718433045,83.7487280343246,1340.98,already build before 2017
1991,wc,31011915014,motichak,KUSHI NAGAR,puraini,1,1,1,26.8502863231474,83.7838788496734,7640.2,already build before 2017
1992,wc,31011915211,motichak,KUSHI NAGAR,rohua machhargava,1,1,1,26.8260239479951,83.6838442538978,1049.57,already build before 2017
1994,wc,31011915220,motichak,KUSHI NAGAR,rohua machhargava,1,1,1,26.8250998814064,83.6894114544258,2661.01,already build before 2017
1995,wc,31011915268,motichak,KUSHI NAGAR,satbhariwa mahuawa,1,1,1,26.8221088391978,83.7425483370974,1462.48,already build before 2017
1996,wc,31011622960,motichak,KUSHI NAGAR,singhpur,1,1,1,26.7785281475991,83.7045654909225,690.81,already build before 2017
1997,w,31011622963,motichak,KUSHI NAGAR,singhpur,1,1,1,26.7792877191689,83.710040242248,2907.02,already build before 2017
1999,3172006065/WC/9454350829,31010972308,motichak,KUSHI NAGAR,sonabarasa,1,1,1,26.8051432795277,83.6944351970233,5276.05,already build before 2017
2004,Padari me Dhamaur Tola Par Sawaru ke Pass Wali Pokhari ki Khudai karya,31011762028,sukrauli,KUSHI NAGAR,padari,1,1,1,26.6706746654306,83.6388410966989,2004.37,
2007,Pidra me Lakhraj ke khet wali pokhari ki khudai karya,31012046521,sukrauli,KUSHI NAGAR,pidra,1,1,1,26.7100051047466,83.6427132906767,261.24,
2008,Pidra me Bhikhatola me narsingh ke gher ke paas wali pokhari ki khudai karya,31012046525,sukrauli,KUSHI NAGAR,pidra,1,1,1,26.7104260188479,83.6428453153257,103.15,
2015,Sahjauli me Choti Gomdahiya pokhari ki khudai karya,31011745892,sukrauli,KUSHI NAGAR,sahjauli,1,1,1,26.8254583395865,83.5860760819349,338.41,
2020,Sirsiya Gaon Se Sate Dachin Pokhari ki Khudai karya,31012046235,sukrauli,KUSHI NAGAR,sirsia,1,1,1,26.762167660978,83.6189386136473,585.34,
2028,WC,31011312258,motichak,KUSHI NAGAR,madhwalia,1,1,1,26.8297430116786,83.7044131961998,347.27,
2033,wc,31011614053,motichak,KUSHI NAGAR,vishunpura,1,1,1,26.8306760496634,83.7052851942483,364.21,
2036,Bhathahi Bujurg Me Suresh Singh Ke Pokhara Khudai/Khet Talab Nirman Karya,31012045623,ramkola,KUSHI NAGAR,bhathahi bujurg,1,1,1,26.8645666666667,83.8764388888889,1234.09,
2044,MITTI KARYA,31006384727,tamkuhiraj,KUSHI NAGAR,amava mahanth,1,1,1,26.6709166666667,84.0822777777778,174.86,
2059,abc,31010599409,tamkuhiraj,KUSHI NAGAR,hata,1,1,1,26.7222055555556,84.1687972222222,672.59,
2091,3152002027/WC/9454349662,31010765290,lakshmipur,MAHARAJGANJ,bairwa jangal,1,1,1,27.3596926,83.4464016,283.05,
2095,3152002040/WC/9454350553,31011141691,lakshmipur,MAHARAJGANJ,banarasiya khurd,1,1,1,27.30888829,83.45494819,463.03,
2138,3152002028/WC/9454356765,31011145205,lakshmipur,MAHARAJGANJ,semrahwa,1,1,1,27.31115,83.5107,419.27,
2143,3152002014/WC/9454349418,31010761532,lakshmipur,MAHARAJGANJ,surpar,1,1,1,27.2077777777778,83.3180777777778,426.14,
2152,MGNREGA WORK,31011456803,mithaura,MAHARAJGANJ,aura tar,1,1,1,27.3002861111111,83.6731944444444,480.25,
2160,MITTI KARY,31012313257,mithaura,MAHARAJGANJ,harpur kala,1,1,1,27.2628472222222,83.6603166666667,1007.94,
2179,wc,31012213195,nichlaul,MAHARAJGANJ,bhediya,1,1,1,27.2454277777778,83.7106166666667,539.86,
2182,WC,31011447894,nichlaul,MAHARAJGANJ,budhadih  khurd,1,1,1,27.3170638888889,83.6971361111111,567.62,
2194,WC,31011468447,nichlaul,MAHARAJGANJ,karadah,1,1,1,27.3782972222222,83.6874083333333,572.79,
2203,WC,31011502162,nichlaul,MAHARAJGANJ,rampurwa,1,1,1,27.2245083333333,83.7619333333333,1020.88,
2205,POKHRI KA KHUDAI,31010769618,nichlaul,MAHARAJGANJ,sohat,1,1,1,27.2318277777778,83.7542583333333,432.25,
2245,PARASKHAD ME BASDAHIYA POKHARE KA JIRNODHAR,31010786505,pharenda,MAHARAJGANJ,paraskhand,1,1,1,27.1449944444444,83.3650805555556,648.8,
2255,SINGHPURAYODHYA ME MALANG BABA KE STHAN PAR POKHARI KA JIRNODHAR,31010791366,pharenda,MAHARAJGANJ,singhpur ayodhya,1,1,1,27.1440222222222,83.3884388888889,295.1,
2286,wc/354960,31011460794,ghughuli,MAHARAJGANJ,mangalpur patakhauli,1,1,1,27.0205305555555,83.6999722222222,728.67,
2315,MGNREGA,31011546060,mithaura,MAHARAJGANJ,basantpur raja,1,1,1,27.2102555555555,83.5494833333333,207.4,
2425,Wc,31009952867,gilaula,SHRAVASTI,keshav pur pajava,1,1,1,27.634775,81.7562027777778,1889.12,
2440,9454352451,31011097748,naugarh,SIDDHARTH NAGAR,belteekar,1,1,1,27.3136444444444,83.1784277777778,172.28,
2451,3151009029/WC/9454343596,31011045109,uska bazar,SIDDHARTH NAGAR,chhitra par,1,1,1,27.204325,83.0637055555556,687.13,
2464,3151009044/WC/9454344146,31010908203,uska bazar,SIDDHARTH NAGAR,sohas khas,1,1,1,27.2609472222222,83.1565083333333,286.15,
2465,3151009040/WC/9454344148,31011624151,uska bazar,SIDDHARTH NAGAR,sohas zanube,1,1,1,27.2607194444444,83.1288333333333,2297.49,
2483,अजगरा गॉव के उत्,31011445624,bansi,SIDDHARTH NAGAR,parashpur,1,1,1,27.2507277777778,82.8665777777778,2809.13,
2515,GP.DUBHRA ME GAW SE PICT ROAD SE DAKCHID BUDDHA NADI NALA KHUDAI KARYA,31010694371,mithwal,SIDDHARTH NAGAR,dubhra,1,1,1,27.09105641,82.90265468,275,
2520,GP.GHUMACHI ME PRATHAMIK VIDHYALAY BHATPURWAKE PASS POKHRE KI KHUDAI KARYA,31012215527,mithwal,SIDDHARTH NAGAR,ghumchi,1,1,1,27.06151377,82.85177229,3114,
2525,GP Harriya 2 me panbhariya gaddhe ki khudai karye,31012215560,mithwal,SIDDHARTH NAGAR,haraiya 2,1,1,1,27.06710567,82.86946135,4121,Confusion
2540,GP.MALOALI ME PARTHMIK VIDHYALAY KE UTTAR GADDE KI GAD AVM JALKUBHI SAFAI/KHUDAI KARYA,31012215866,mithwal,SIDDHARTH NAGAR,malawli,1,1,1,27.16244333,82.94751953,1214,Confusing
2640,pokhara khudai,31010651210,khuniyaon,SIDDHARTH NAGAR,latera,1,1,1,27.2409555,82.69868803,1201,
2648,WC,31011240598,mihinpurwa,BAHRAICH,vishv nath ganv,1,1,1,27.97189152,81.47376716,233,
2650,9454357588,31011754778,chitaura,BAHRAICH,mohd nagar,1,1,1,27.6037044,81.56393502,3140,
2658,3146015059/WC/9454354224,31011957409,huzoorpur,BAHRAICH,sadiya bad,1,1,1,27.4923414,81.588098,2158,
2684,WC,31012205129,mahasi,BAHRAICH,bambhauri,1,1,1,27.54865882,81.3604415,325,
2708,KAILASHPUR ME DEVI STHAN,31011913747,phakharpur,BAHRAICH,golagunj,1,1,1,27.48224528,81.39862449,1387,
2715,(3146004062/WC/9454357599),31011961949,shivpur,BAHRAICH,mogariha,1,1,1,27.71040307,81.48867645,3520,
2718,3146015041/WC/9454353107,31011897762,huzoorpur,BAHRAICH,baruhi,1,1,1,27.37286337,81.74312825,975,
2721,3146015014/WC/9454356346,31011931817,huzoorpur,BAHRAICH,gaudriya,1,1,1,27.43829434,81.6954628,193,
2729,3146015068/WC/9454353733,31011754608,huzoorpur,BAHRAICH,trikoliya,1,1,1,27.38809216,81.6705162,699,
2760,NALA KE BAGAL TALAB KHUDAI KARY,31011758219,visheshwarganj,BAHRAICH,shiv pur beragi,1,1,1,27.32243839,81.76350912,3178,
2764,3146015065/WC/9454349498,31011756214,huzoorpur,BAHRAICH,hameer pur chhidkuri,1,1,1,27.29440788,81.66498202,578,
2770,Bibyapara me girraoo sc ke khet kebaagal me Talab nirman,31010914076,kaisarganj,BAHRAICH,bibiyapara,1,1,1,27.34642378,81.57536823,2162,
2771,3146016033/WC/9454348203,31011219492,kaisarganj,BAHRAICH,dihawasherbahadur singh,1,1,1,27.25462313,81.54267887,2754,
2793,WC,31013170171,balrampur,BALRAMPUR,chulha bharee,1,1,1,27.37948516,82.2898019,127,
2810,31-12-2018,31012173362,balrampur,BALRAMPUR,singahi,1,1,1,27.45128494,82.06499292,4012,
2857,IMTIYAZ AHMAD,31011735077,tulsipur,BALRAMPUR,maharajganj tarae,1,1,1,27.54663277,82.26737751,1485,
2875,DHOBIGHAT TALAB KA JIRDODHAR WORK,31012123337,shriduttganj,BALRAMPUR,mahuwa ibrahim,1,1,1,27.34329148,82.28788059,355,
2876,VEERBALDEEH ME RAMJAN KE GHAR KE PAS TALAB KA JIRDODHAR WORK,31011743101,shriduttganj,BALRAMPUR,majhari wachhil,1,1,1,27.3998728,82.33711032,145,
2930,9454354206,31012118704,basti,BASTI,marha,1,1,1,26.77761729,82.64041705,179,